id,stationName,availableDocks,totalDocks,latitude,longitude,statusValue,statusKey,status,availableBikes,stAddress1,stAddress2,city,postalCode,location,altitude,testStation,lastCommunicationTime,kioskType,landMark,is_renting
3,Shedd Aquarium,28,55,41.86722595682,-87.6153553902,In Service,1,IN_SERVICE,27,Shedd Aquarium,,Chicago,,,,False,2019-02-01 17:57:53,K3_FULL,15544,True
52,Michigan Ave & Lake St,30,35,41.886024,-87.624117,In Service,1,IN_SERVICE,4,Michigan Ave & Lake St,,Chicago,60601,203 N Michigan Ave,,False,2019-02-01 18:00:18,K3_FULL,13043,True
61,Wood St & Milwaukee Ave,17,19,41.907655,-87.672552,In Service,1,IN_SERVICE,2,Wood St & Milwaukee Ave,,Chicago,60622,1416 N Wood St,,False,2019-02-01 17:57:33,K3_FULL,13221,True
80,Aberdeen St & Monroe St,4,19,41.880419,-87.655519,In Service,1,IN_SERVICE,15,Aberdeen St & Monroe St,,Chicago,60607,,,False,2019-02-01 17:56:28,K3_FULL,13156,True
182,Wells St & Elm St,10,22,41.903222,-87.634324,In Service,1,IN_SERVICE,12,Wells St & Elm St,,Chicago,60610,,,False,2019-02-01 17:59:24,K3_FULL,15522,True
515,Paulina St & Howard St,5,19,42.019159,-87.673573,In Service,1,IN_SERVICE,14,Paulina St & Howard St,,Chicago,60626,,,False,2019-02-01 18:00:04,K3_FULL,16802,True
id,stationName,availableDocks,totalDocks,latitude,longitude,statusValue,statusKey,status,availableBikes,stAddress1,stAddress2,city,postalCode,location,altitude,testStation,lastCommunicationTime,kioskType,landMark,is_renting
48,Larrabee St & Kingsbury St,24,43,41.897764,-87.642884,In Service,1,IN_SERVICE,19,Larrabee St & Kingsbury St,,Chicago,60610,840 N Larrabee St,,False,2019-02-01 17:59:09,K3_FULL,13012,True
98,LaSalle St & Washington St,12,15,41.882664,-87.63253,In Service,1,IN_SERVICE,2,LaSalle St & Washington St,,Chicago,60602,,,False,2019-02-01 17:59:45,K3_FULL,13006,True
110,Dearborn St & Erie St,6,27,41.893992,-87.629318,In Service,1,IN_SERVICE,21,Dearborn St & Erie St,"
",Chicago,60654,,,False,2019-02-01 17:58:47,K3_FULL,13045,True
294,Broadway & Berwyn Ave,14,15,41.978353,-87.659753,In Service,1,IN_SERVICE,1,Broadway & Berwyn Ave,,Chicago,60640,,,False,2019-02-01 17:56:42,K3_FULL,13109,True
id,stationName,availableDocks,totalDocks,latitude,longitude,statusValue,statusKey,status,availableBikes,stAddress1,stAddress2,city,postalCode,location,altitude,testStation,lastCommunicationTime,kioskType,landMark,is_renting
3,Shedd Aquarium,29,55,41.86722595682,-87.6153553902,In Service,1,IN_SERVICE,26,Shedd Aquarium,,Chicago,,,,False,2019-02-01 17:57:53,K3_FULL,15544,True
211,St. Clair St & Erie St,6,19,41.894448,-87.622663,In Service,1,IN_SERVICE,13,St. Clair St & Erie St,,Chicago,60611,,,False,2019-02-01 17:58:57,K3_FULL,13016,True
287,Franklin St & Monroe St,21,27,41.880317,-87.635185,In Service,1,IN_SERVICE,6,Franklin St & Monroe St,,Chicago,60606,,,False,2019-02-01 17:56:56,K3_FULL,13057,True
id,stationName,availableDocks,totalDocks,latitude,longitude,statusValue,statusKey,status,availableBikes,stAddress1,stAddress2,city,postalCode,location,altitude,testStation,lastCommunicationTime,kioskType,landMark,is_renting
18,Wacker Dr & Washington St,8,19,41.883132,-87.637321,In Service,1,IN_SERVICE,11,Wacker Dr & Washington St,,Chicago,60606,,,False,2019-02-01 18:00:39,K3_FULL,15536,True
23,Orleans St & Elm St (*),10,16,41.902924,-87.637715,In Service,1,IN_SERVICE,6,Orleans St & Elm St (*),,Chicago,60610,350 W. Elm st,,False,2019-02-01 18:01:35,K3_FULL,13172,True
61,Wood St & Milwaukee Ave,18,19,41.907655,-87.672552,In Service,1,IN_SERVICE,1,Wood St & Milwaukee Ave,,Chicago,60622,1416 N Wood St,,False,2019-02-01 17:57:33,K3_FULL,13221,True
183,Damen Ave & Thomas St (Augusta Blvd),15,23,41.901315,-87.677409,In Service,1,IN_SERVICE,8,Damen Ave & Thomas St (Augusta Blvd),,Chicago,60622,,,False,2019-02-01 17:59:55,K3_FULL,13142,True
212,Wells St & Hubbard St,26,31,41.889906,-87.634266,In Service,1,IN_SERVICE,5,Wells St & Hubbard St,,Chicago,60654,,,False,2019-02-01 18:00:01,K3_FULL,13264,True
id,stationName,availableDocks,totalDocks,latitude,longitude,statusValue,statusKey,status,availableBikes,stAddress1,stAddress2,city,postalCode,location,altitude,testStation,lastCommunicationTime,kioskType,landMark,is_renting
36,Franklin St & Jackson Blvd,36,39,41.8777079559,-87.6353211408,In Service,1,IN_SERVICE,3,Franklin St & Jackson Blvd,,Chicago,60606,340 S. Franklin St,,False,2019-02-01 18:00:05,K3_FULL,13019,True
41,Federal St & Polk St,10,19,41.87207763285,-87.6295437729,In Service,1,IN_SERVICE,9,Federal St & Polk St,,Chicago,60605,,,False,2019-02-01 18:00:02,K3_FULL,15543,True
51,Clark St & Randolph St,32,39,41.884576228,-87.63188991,In Service,1,IN_SERVICE,6,Clark St & Randolph St,,Chicago,60601,120 W. Randolph St.,,False,2019-02-01 18:01:44,K3_FULL,13005,True
192,Canal St & Adams St,3,47,41.879255,-87.639904,In Service,1,IN_SERVICE,44,Canal St & Adams St,,Chicago,60661,,,False,2019-02-01 18:01:03,K3_FULL,13011,True
307,Southport Ave & Clybourn Ave,12,15,41.920771,-87.663712,In Service,1,IN_SERVICE,3,Southport Ave & Clybourn Ave,,Chicago,60614,,,False,2019-02-01 18:01:00,K3_FULL,13186,True
id,stationName,availableDocks,totalDocks,latitude,longitude,statusValue,statusKey,status,availableBikes,stAddress1,stAddress2,city,postalCode,location,altitude,testStation,lastCommunicationTime,kioskType,landMark,is_renting
33,State St & Van Buren St,26,27,41.877181,-87.627844,In Service,1,IN_SERVICE,1,State St & Van Buren St,,Chicago,60604,360 S State St,,False,2019-02-01 17:59:36,K3_FULL,13003,True
49,Dearborn St & Monroe St,6,39,41.881319815,-87.6295209193,In Service,1,IN_SERVICE,33,Dearborn St & Monroe St,,Chicago,60603,80 S Dearborn St,,False,2019-02-01 17:58:42,K3_FULL,13049,True
133,Kingsbury St & Kinzie St,14,31,41.88917683258,-87.6385057718,In Service,1,IN_SERVICE,16,Kingsbury St & Kinzie St,,Chicago,60654,,,False,2019-02-01 18:00:49,K3_FULL,15532,True
245,Clarendon Ave & Junior Ter,14,23,41.961004,-87.649603,In Service,1,IN_SERVICE,9,Clarendon Ave & Junior Ter,,Chicago,60613,,,False,2019-02-01 17:59:51,K3_FULL,13389,True
309,Leavitt St & Armitage Ave,4,11,41.917805,-87.682437,In Service,1,IN_SERVICE,7,Leavitt St & Armitage Ave,,Chicago,60647,,,False,2019-02-01 17:59:13,K3_FULL,13286,True
405,Wentworth Ave & 35th St,9,15,41.830777,-87.632504,In Service,1,IN_SERVICE,6,Wentworth Ave & 35th St,,Chicago,60616,,,False,2019-02-01 17:58:58,K3_FULL,15447,True
637,Wood St & Chicago Ave (*),7,16,41.895634,-87.672069,In Service,1,IN_SERVICE,9,Wood St & Chicago Ave (*),,Chicago,60622,,,False,2019-02-01 18:02:40,K3_FULL,18006,True
658,Leavitt St & Division St (*),2,16,41.902997,-87.683825,In Service,1,IN_SERVICE,14,Leavitt St & Division St (*),,Chicago,60622,,,False,2019-02-01 18:02:28,K3_FULL,18057,True
id,stationName,availableDocks,totalDocks,latitude,longitude,statusValue,statusKey,status,availableBikes,stAddress1,stAddress2,city,postalCode,location,altitude,testStation,lastCommunicationTime,kioskType,landMark,is_renting
40,LaSalle St & Adams St,9,15,41.87934437346,-87.6319852213,In Service,1,IN_SERVICE,6,LaSalle St & Adams St,,Chicago,60603,,,False,2019-02-01 18:01:06,K3_FULL,15537,True
51,Clark St & Randolph St,33,39,41.884576228,-87.63188991,In Service,1,IN_SERVICE,5,Clark St & Randolph St,,Chicago,60601,120 W. Randolph St.,,False,2019-02-01 18:01:44,K3_FULL,13005,True
77,Clinton St & Madison St,4,31,41.882242,-87.641066,In Service,1,IN_SERVICE,26,Clinton St & Madison St,,Chicago,60661,5 N Clinton St,,False,2019-02-01 18:03:10,K3_FULL,13301,True
241,Morgan St & Polk St,17,19,41.871737,-87.65103,In Service,1,IN_SERVICE,2,Morgan St & Polk St,,Chicago ,60607,,,False,2019-02-01 17:59:48,K3_FULL,13168,True
id,stationName,availableDocks,totalDocks,latitude,longitude,statusValue,statusKey,status,availableBikes,stAddress1,stAddress2,city,postalCode,location,altitude,testStation,lastCommunicationTime,kioskType,landMark,is_renting
47,State St & Kinzie St,28,31,41.889187,-87.627754,In Service,1,IN_SERVICE,3,State St & Kinzie St,,Chicago,60654,5 E Kinzie St,,False,2019-02-01 18:01:18,K3_FULL,13050,True
49,Dearborn St & Monroe St,5,39,41.881319815,-87.6295209193,In Service,1,IN_SERVICE,34,Dearborn St & Monroe St,,Chicago,60603,80 S Dearborn St,,False,2019-02-01 18:03:07,K3_FULL,13049,True
91,Clinton St & Washington Blvd,10,31,41.88338,-87.64117,In Service,1,IN_SERVICE,21,Clinton St & Washington Blvd,,Chicago,60661,109 N Clinton St,,False,2019-02-01 18:01:38,K3_FULL,13010,True
106,State St & Pearson St,19,27,41.897448,-87.628722,In Service,1,IN_SERVICE,8,State St & Pearson St,,Chicago,60610,,,False,2019-02-01 17:59:59,K3_FULL,13014,True
id,stationName,availableDocks,totalDocks,latitude,longitude,statusValue,statusKey,status,availableBikes,stAddress1,stAddress2,city,postalCode,location,altitude,testStation,lastCommunicationTime,kioskType,landMark,is_renting
13,Wilton Ave & Diversey Pkwy,28,35,41.932418,-87.652705,In Service,1,IN_SERVICE,7,Wilton Ave & Diversey Pkwy,,Chicago,60614,2790 N.Wilton Ave,,False,2019-02-01 18:05:18,K3_FULL,13066,True
77,Clinton St & Madison St,5,31,41.882242,-87.641066,In Service,1,IN_SERVICE,25,Clinton St & Madison St,,Chicago,60661,5 N Clinton St,,False,2019-02-01 18:03:10,K3_FULL,13301,True
199,Wabash Ave & Grand Ave,20,31,41.891466,-87.626761,In Service,1,IN_SERVICE,11,Wabash Ave & Grand Ave,,Chicago,60611,,,False,2019-02-01 18:02:43,K3_FULL,13004,True
id,stationName,availableDocks,totalDocks,latitude,longitude,statusValue,statusKey,status,availableBikes,stAddress1,stAddress2,city,postalCode,location,altitude,testStation,lastCommunicationTime,kioskType,landMark,is_renting
75,Canal St & Jackson Blvd,11,39,41.877245,-87.639366,In Service,1,IN_SERVICE,27,Canal St & Jackson Blvd,,Chicago,60661,,,False,2019-02-01 18:04:08,K3_FULL,13138,True
113,Bissell St & Armitage Ave,5,15,41.91844,-87.65222,In Service,1,IN_SERVICE,10,Bissell St & Armitage Ave,,Chicago ,60614,,,False,2019-02-01 18:05:50,K3_FULL,13059,True
173,Mies van der Rohe Way & Chicago Ave,1,15,41.89691,-87.621743,In Service,1,IN_SERVICE,14,Mies van der Rohe Way & Chicago Ave,,Chicago ,60611,,,False,2019-02-01 18:05:49,K3_FULL,13338,True
197,Michigan Ave & Madison St,8,19,41.882134,-87.625125,In Service,1,IN_SERVICE,11,Michigan Ave & Madison St,,Chicago,60602,,,False,2019-02-01 18:02:07,K3_FULL,13036,True
349,Halsted St & Wrightwood Ave,14,15,41.929143,-87.649077,In Service,1,IN_SERVICE,1,Halsted St & Wrightwood Ave,,Chicago,60614,,,False,2019-02-01 18:05:48,K3_FULL,13210,True
id,stationName,availableDocks,totalDocks,latitude,longitude,statusValue,statusKey,status,availableBikes,stAddress1,stAddress2,city,postalCode,location,altitude,testStation,lastCommunicationTime,kioskType,landMark,is_renting
49,Dearborn St & Monroe St,4,39,41.881319815,-87.6295209193,In Service,1,IN_SERVICE,35,Dearborn St & Monroe St,,Chicago,60603,80 S Dearborn St,,False,2019-02-01 18:03:07,K3_FULL,13049,True
91,Clinton St & Washington Blvd,11,31,41.88338,-87.64117,In Service,1,IN_SERVICE,20,Clinton St & Washington Blvd,,Chicago,60661,109 N Clinton St,,False,2019-02-01 18:06:03,K3_FULL,13010,True
130,Damen Ave & Division St,6,19,41.903266,-87.678435,In Service,1,IN_SERVICE,13,Damen Ave & Division St,,Chicago ,60622,,,False,2019-02-01 18:05:31,K3_FULL,13136,True
id,stationName,availableDocks,totalDocks,latitude,longitude,statusValue,statusKey,status,availableBikes,stAddress1,stAddress2,city,postalCode,location,altitude,testStation,lastCommunicationTime,kioskType,landMark,is_renting
26,McClurg Ct & Illinois St,25,31,41.890359,-87.617532,In Service,1,IN_SERVICE,5,McClurg Ct & Illinois St,,Chicago,60611,,,False,2019-02-01 18:04:59,K3_FULL,13051,True
482,Campbell Ave & Montrose Ave,11,15,41.96152593287,-87.6911650414,In Service,1,IN_SERVICE,4,Campbell Ave & Montrose Ave,,Chicago,60625,,,False,2019-02-01 18:02:29,K3_FULL,15623,True
id,stationName,availableDocks,totalDocks,latitude,longitude,statusValue,statusKey,status,availableBikes,stAddress1,stAddress2,city,postalCode,location,altitude,testStation,lastCommunicationTime,kioskType,landMark,is_renting
77,Clinton St & Madison St,4,31,41.882242,-87.641066,In Service,1,IN_SERVICE,26,Clinton St & Madison St,,Chicago,60661,5 N Clinton St,,False,2019-02-01 18:07:43,K3_FULL,13301,True
217,Racine Ave (May St) & Fulton St,8,14,41.886926,-87.656919,In Service,1,IN_SERVICE,6,Racine Ave (May St) & Fulton St,,Chicago,60607,,,False,2019-02-01 18:05:21,K3_FULL,13197,True
id,stationName,availableDocks,totalDocks,latitude,longitude,statusValue,statusKey,status,availableBikes,stAddress1,stAddress2,city,postalCode,location,altitude,testStation,lastCommunicationTime,kioskType,landMark,is_renting
26,McClurg Ct & Illinois St,24,31,41.890359,-87.617532,In Service,1,IN_SERVICE,6,McClurg Ct & Illinois St,,Chicago,60611,,,False,2019-02-01 18:04:59,K3_FULL,13051,True
91,Clinton St & Washington Blvd,10,31,41.88338,-87.64117,In Service,1,IN_SERVICE,21,Clinton St & Washington Blvd,,Chicago,60661,109 N Clinton St,,False,2019-02-01 18:06:03,K3_FULL,13010,True
133,Kingsbury St & Kinzie St,13,31,41.88917683258,-87.6385057718,In Service,1,IN_SERVICE,17,Kingsbury St & Kinzie St,,Chicago,60654,,,False,2019-02-01 18:05:24,K3_FULL,15532,True
156,Clark St & Wellington Ave,8,15,41.9364968219,-87.6475386582,In Service,1,IN_SERVICE,7,Clark St & Wellington Ave,,Chicago ,60657,,,False,2019-02-01 18:06:07,K3_FULL,13232,True
183,Damen Ave & Thomas St (Augusta Blvd),14,23,41.901315,-87.677409,In Service,1,IN_SERVICE,9,Damen Ave & Thomas St (Augusta Blvd),,Chicago,60622,,,False,2019-02-01 18:04:26,K3_FULL,13142,True
243,Lincoln Ave & Sunnyside Ave,10,15,41.963004,-87.684781,In Service,1,IN_SERVICE,5,Lincoln Ave & Sunnyside Ave,,Chicago ,60625,,,False,2019-02-01 18:08:02,K3_FULL,13126,True
307,Southport Ave & Clybourn Ave,10,15,41.920771,-87.663712,In Service,1,IN_SERVICE,5,Southport Ave & Clybourn Ave,,Chicago,60614,,,False,2019-02-01 18:05:28,K3_FULL,13186,True
id,stationName,availableDocks,totalDocks,latitude,longitude,statusValue,statusKey,status,availableBikes,stAddress1,stAddress2,city,postalCode,location,altitude,testStation,lastCommunicationTime,kioskType,landMark,is_renting
91,Clinton St & Washington Blvd,11,31,41.88338,-87.64117,In Service,1,IN_SERVICE,20,Clinton St & Washington Blvd,,Chicago,60661,109 N Clinton St,,False,2019-02-01 18:06:03,K3_FULL,13010,True
116,Western Ave & Winnebago Ave,13,15,41.91552,-87.687022,In Service,1,IN_SERVICE,2,Western Ave & Winnebago Ave,,Chicago,60647,,,False,2019-02-01 18:07:01,K3_FULL,13068,True
286,Franklin St & Quincy St,10,23,41.878724,-87.634793,In Service,1,IN_SERVICE,13,Franklin St & Quincy St,,Chicago,60606,,,False,2019-02-01 18:07:39,K3_FULL,13007,True
414,Canal St & Taylor St,6,15,41.870257,-87.639474,In Service,1,IN_SERVICE,9,Canal St & Taylor St,990 S Canal St,Chicago,60607,,,False,2019-02-01 18:05:55,K3_FULL,15550,True
id,stationName,availableDocks,totalDocks,latitude,longitude,statusValue,statusKey,status,availableBikes,stAddress1,stAddress2,city,postalCode,location,altitude,testStation,lastCommunicationTime,kioskType,landMark,is_renting
44,State St & Randolph St,8,27,41.8847302006,-87.6277335692,In Service,1,IN_SERVICE,19,State St & Randolph St,,Chicago,60601,,,False,2019-02-01 18:07:02,K3_FULL,13002,True
116,Western Ave & Winnebago Ave,12,15,41.91552,-87.687022,In Service,1,IN_SERVICE,3,Western Ave & Winnebago Ave,,Chicago,60647,,,False,2019-02-01 18:07:01,K3_FULL,13068,True
302,Sheffield Ave & Wrightwood Ave,9,30,41.928712,-87.653833,In Service,1,IN_SERVICE,21,Sheffield Ave & Wrightwood Ave,,Chicago,60614,,,False,2019-02-01 18:08:01,K3_FULL,13211,True
350,Ashland Ave & Chicago Ave,2,15,41.895966,-87.667747,In Service,1,IN_SERVICE,13,Ashland Ave & Chicago Ave,,Chicago,60622,,,False,2019-02-01 18:05:58,K3_FULL,13247,True
id,stationName,availableDocks,totalDocks,latitude,longitude,statusValue,statusKey,status,availableBikes,stAddress1,stAddress2,city,postalCode,location,altitude,testStation,lastCommunicationTime,kioskType,landMark,is_renting
41,Federal St & Polk St,11,19,41.87207763285,-87.6295437729,In Service,1,IN_SERVICE,8,Federal St & Polk St,,Chicago,60605,,,False,2019-02-01 18:09:08,K3_FULL,15543,True
81,Daley Center Plaza,16,39,41.884241,-87.629634,In Service,1,IN_SERVICE,22,Daley Center Plaza,,Chicago,60601,,,False,2019-02-01 18:08:54,K3_FULL,13023,True
192,Canal St & Adams St,2,47,41.879255,-87.639904,In Service,1,IN_SERVICE,45,Canal St & Adams St,,Chicago,60661,,,False,2019-02-01 18:05:36,K3_FULL,13011,True
id,stationName,availableDocks,totalDocks,latitude,longitude,statusValue,statusKey,status,availableBikes,stAddress1,stAddress2,city,postalCode,location,altitude,testStation,lastCommunicationTime,kioskType,landMark,is_renting
168,Michigan Ave & 14th St,14,19,41.864059,-87.623727,In Service,1,IN_SERVICE,5,Michigan Ave & 14th St,,Chicago ,60605,,,False,2019-02-01 18:08:04,K3_FULL,13310,True
199,Wabash Ave & Grand Ave,19,31,41.891466,-87.626761,In Service,1,IN_SERVICE,12,Wabash Ave & Grand Ave,,Chicago,60611,,,False,2019-02-01 18:07:14,K3_FULL,13004,True
287,Franklin St & Monroe St,22,27,41.880317,-87.635185,In Service,1,IN_SERVICE,5,Franklin St & Monroe St,,Chicago,60606,,,False,2019-02-01 18:10:31,K3_FULL,13057,True
id,stationName,availableDocks,totalDocks,latitude,longitude,statusValue,statusKey,status,availableBikes,stAddress1,stAddress2,city,postalCode,location,altitude,testStation,lastCommunicationTime,kioskType,landMark,is_renting
53,Wells St & Huron St,19,27,41.894722,-87.634362,In Service,1,IN_SERVICE,8,Wells St & Huron St,,Chicago,60654,,,False,2019-02-01 18:09:16,K3_FULL,13064,True
56,Desplaines St & Kinzie St,13,27,41.888716036,-87.6444478533,In Service,1,IN_SERVICE,14,Desplaines St & Kinzie St,,Chicago,60661,368 N. Desplaines St.,,False,2019-02-01 18:10:16,K3_FULL,13039,True
id,stationName,availableDocks,totalDocks,latitude,longitude,statusValue,statusKey,status,availableBikes,stAddress1,stAddress2,city,postalCode,location,altitude,testStation,lastCommunicationTime,kioskType,landMark,is_renting
26,McClurg Ct & Illinois St,23,31,41.890359,-87.617532,In Service,1,IN_SERVICE,7,McClurg Ct & Illinois St,,Chicago,60611,,,False,2019-02-01 18:09:23,K3_FULL,13051,True
69,Damen Ave & Pierce Ave,16,23,41.9093960065,-87.6776919292,In Service,1,IN_SERVICE,5,Damen Ave & Pierce Ave,,Chicago,60622,2002 W Pierce Ave,,False,2019-02-01 18:07:51,K3_FULL,13065,True
81,Daley Center Plaza,15,39,41.884241,-87.629634,In Service,1,IN_SERVICE,23,Daley Center Plaza,,Chicago,60601,,,False,2019-02-01 18:08:54,K3_FULL,13023,True
98,LaSalle St & Washington St,11,15,41.882664,-87.63253,In Service,1,IN_SERVICE,3,LaSalle St & Washington St,,Chicago,60602,,,False,2019-02-01 18:08:49,K3_FULL,13006,True
112,Green St & Randolph St,5,15,41.883668,-87.64867,In Service,1,IN_SERVICE,10,Green St & Randolph St,,Chicago ,60607,,,False,2019-02-01 18:08:08,K3_FULL,13053,True
134,Peoria St & Jackson Blvd,6,19,41.877749,-87.649633,In Service,1,IN_SERVICE,13,Peoria St & Jackson Blvd,,Chicago,60607,,,False,2019-02-01 18:11:06,K3_FULL,13158,True
283,LaSalle St & Jackson Blvd,25,35,41.878166,-87.631929,In Service,1,IN_SERVICE,10,LaSalle St & Jackson Blvd,,Chicago,60604,,,False,2019-02-01 18:09:14,K3_FULL,13032,True
338,Calumet Ave & 18th St,14,15,41.857611,-87.619407,In Service,1,IN_SERVICE,1,Calumet Ave & 18th St,,Chicago,60616,,,False,2019-02-01 18:09:17,K3_FULL,13102,True
id,stationName,availableDocks,totalDocks,latitude,longitude,statusValue,statusKey,status,availableBikes,stAddress1,stAddress2,city,postalCode,location,altitude,testStation,lastCommunicationTime,kioskType,landMark,is_renting
98,LaSalle St & Washington St,10,15,41.882664,-87.63253,In Service,1,IN_SERVICE,4,LaSalle St & Washington St,,Chicago,60602,,,False,2019-02-01 18:08:49,K3_FULL,13006,True
140,Dearborn Pkwy & Delaware Pl,10,19,41.898969,-87.629912,In Service,1,IN_SERVICE,9,Dearborn Pkwy & Delaware Pl,,Chicago ,60610,,,False,2019-02-01 18:12:02,K3_FULL,13173,True
198,Green St & Madison St,10,27,41.881892,-87.648789,In Service,1,IN_SERVICE,16,Green St & Madison St,,Chicago,60661,,,False,2019-02-01 18:10:04,K3_FULL,13159,True
327,Sheffield Ave & Webster Ave,0,19,41.92154,-87.653818,In Service,1,IN_SERVICE,19,Sheffield Ave & Webster Ave,,Chicago,60614,,,False,2019-02-01 18:08:24,K3_FULL,13188,True
id,stationName,availableDocks,totalDocks,latitude,longitude,statusValue,statusKey,status,availableBikes,stAddress1,stAddress2,city,postalCode,location,altitude,testStation,lastCommunicationTime,kioskType,landMark,is_renting
212,Wells St & Hubbard St,27,31,41.889906,-87.634266,In Service,1,IN_SERVICE,4,Wells St & Hubbard St,,Chicago,60654,,,False,2019-02-01 18:09:13,K3_FULL,13264,True
624,Dearborn St & Van Buren St (*),3,16,41.876268,-87.629155,In Service,1,IN_SERVICE,13,Dearborn St & Van Buren St (*),,Chicago,60605,417 S Dearborn St,,False,2019-02-01 18:11:30,K3_FULL,17013,True
id,stationName,availableDocks,totalDocks,latitude,longitude,statusValue,statusKey,status,availableBikes,stAddress1,stAddress2,city,postalCode,location,altitude,testStation,lastCommunicationTime,kioskType,landMark,is_renting
69,Damen Ave & Pierce Ave,17,23,41.9093960065,-87.6776919292,In Service,1,IN_SERVICE,4,Damen Ave & Pierce Ave,,Chicago,60622,2002 W Pierce Ave,,False,2019-02-01 18:12:16,K3_FULL,13065,True
98,LaSalle St & Washington St,9,15,41.882664,-87.63253,In Service,1,IN_SERVICE,5,LaSalle St & Washington St,,Chicago,60602,,,False,2019-02-01 18:08:49,K3_FULL,13006,True
107,Desplaines St & Jackson Blvd,17,27,41.878287,-87.643909,In Service,1,IN_SERVICE,10,Desplaines St & Jackson Blvd,,Chicago,60661,,,False,2019-02-01 18:10:36,K3_FULL,15539,True
112,Green St & Randolph St,4,15,41.883668,-87.64867,In Service,1,IN_SERVICE,11,Green St & Randolph St,,Chicago ,60607,,,False,2019-02-01 18:12:48,K3_FULL,13053,True
210,Ashland Ave & Division St,10,27,41.90345,-87.667747,In Service,1,IN_SERVICE,17,Ashland Ave & Division St,,Chicago,60622,,,False,2019-02-01 18:12:22,K3_FULL,13061,True
527,Western Ave & Howard St,10,15,42.018901,-87.690048,In Service,1,IN_SERVICE,5,Western Ave & Howard St,,Chicago,60645,,,False,2019-02-01 18:08:15,K3_FULL,16811,True
id,stationName,availableDocks,totalDocks,latitude,longitude,statusValue,statusKey,status,availableBikes,stAddress1,stAddress2,city,postalCode,location,altitude,testStation,lastCommunicationTime,kioskType,landMark,is_renting
24,Fairbanks Ct & Grand Ave,1,15,41.89186,-87.62062,In Service,1,IN_SERVICE,13,Fairbanks Ct & Grand Ave,,Chicago,60611,240 E.Grand Ave.,,False,2019-02-01 18:10:33,K3_FULL,13262,True
27,Larrabee St & North Ave,9,19,41.91021,-87.6435,In Service,1,IN_SERVICE,10,Larrabee St & North Ave,,Chicago,60610,1530 N.Larrabee st,,False,2019-02-01 18:09:38,K3_FULL,13174,True
98,LaSalle St & Washington St,8,15,41.882664,-87.63253,In Service,1,IN_SERVICE,6,LaSalle St & Washington St,,Chicago,60602,,,False,2019-02-01 18:08:49,K3_FULL,13006,True
289,Wells St & Concord Ln,9,19,41.912133,-87.634656,In Service,1,IN_SERVICE,9,Wells St & Concord Ln,Wells St & Concord Ln,Chicago,60614,,,False,2019-02-01 18:12:46,K3_FULL,13182,True
300,Broadway & Barry Ave,5,19,41.937725,-87.644095,In Service,1,IN_SERVICE,14,Broadway & Barry Ave,,Chicago,60657,,,False,2019-02-01 18:09:16,K3_FULL,13137,True
478,Rockwell St & Eastwood Ave,6,15,41.96590013976,-87.6936384935,In Service,1,IN_SERVICE,9,Rockwell St & Eastwood Ave,,Chicago,60625,,,False,2019-02-01 18:09:04,K3_FULL,15619,True
527,Western Ave & Howard St,10,15,42.018901,-87.690048,In Service,1,IN_SERVICE,4,Western Ave & Howard St,,Chicago,60645,,,False,2019-02-01 18:12:56,K3_FULL,16811,True
id,stationName,availableDocks,totalDocks,latitude,longitude,statusValue,statusKey,status,availableBikes,stAddress1,stAddress2,city,postalCode,location,altitude,testStation,lastCommunicationTime,kioskType,landMark,is_renting
98,LaSalle St & Washington St,7,15,41.882664,-87.63253,In Service,1,IN_SERVICE,7,LaSalle St & Washington St,,Chicago,60602,,,False,2019-02-01 18:13:31,K3_FULL,13006,True
158,Milwaukee Ave & Wabansia Ave,12,15,41.912616,-87.681391,In Service,1,IN_SERVICE,3,Milwaukee Ave & Wabansia Ave,,Chicago ,60647,,,False,2019-02-01 18:13:05,K3_FULL,13243,True
199,Wabash Ave & Grand Ave,20,31,41.891466,-87.626761,In Service,1,IN_SERVICE,11,Wabash Ave & Grand Ave,,Chicago,60611,,,False,2019-02-01 18:11:49,K3_FULL,13004,True
210,Ashland Ave & Division St,9,27,41.90345,-87.667747,In Service,1,IN_SERVICE,18,Ashland Ave & Division St,,Chicago,60622,,,False,2019-02-01 18:12:22,K3_FULL,13061,True
329,Lake Shore Dr & Diversey Pkwy,20,23,41.932588,-87.636427,In Service,1,IN_SERVICE,3,Lake Shore Dr & Diversey Pkwy,,Chicago,60657,,,False,2019-02-01 18:11:03,K3_FULL,13347,True
342,Wolcott Ave & Polk St,10,23,41.871262,-87.673688,In Service,1,IN_SERVICE,13,Wolcott Ave & Polk St,,Chicago,60612,,,False,2019-02-01 18:11:59,K3_FULL,13284,True
id,stationName,availableDocks,totalDocks,latitude,longitude,statusValue,statusKey,status,availableBikes,stAddress1,stAddress2,city,postalCode,location,altitude,testStation,lastCommunicationTime,kioskType,landMark,is_renting
59,Wabash Ave & Roosevelt Rd,7,23,41.867227,-87.625961,In Service,1,IN_SERVICE,16,Wabash Ave & Roosevelt Rd,,Chicago,60605,1210 S Wabash Ave,,False,2019-02-01 18:14:06,K3_FULL,13031,True
98,LaSalle St & Washington St,6,15,41.882664,-87.63253,In Service,1,IN_SERVICE,8,LaSalle St & Washington St,,Chicago,60602,,,False,2019-02-01 18:13:31,K3_FULL,13006,True
414,Canal St & Taylor St,5,15,41.870257,-87.639474,In Service,1,IN_SERVICE,10,Canal St & Taylor St,990 S Canal St,Chicago,60607,,,False,2019-02-01 18:10:31,K3_FULL,15550,True
id,stationName,availableDocks,totalDocks,latitude,longitude,statusValue,statusKey,status,availableBikes,stAddress1,stAddress2,city,postalCode,location,altitude,testStation,lastCommunicationTime,kioskType,landMark,is_renting
38,Clark St & Lake St,22,27,41.88602082773,-87.6308760584,In Service,1,IN_SERVICE,4,Clark St & Lake St,,Chicago,60601,,,False,2019-02-01 18:14:30,K3_FULL,15547,True
88,Racine Ave & Randolph St,7,19,41.884069,-87.656853,In Service,1,IN_SERVICE,12,Racine Ave & Randolph St,,Chicago,60607,1213 W Randolph St,,False,2019-02-01 18:11:39,K3_FULL,13155,True
305,Western Ave & Division St,14,22,41.902893,-87.687275,In Service,1,IN_SERVICE,8,Western Ave & Division St,,Chicago,60622,,,False,2019-02-01 18:14:15,K3_FULL,13241,True
638,Clinton St & Jackson Blvd (*),4,32,41.878419,-87.640977,In Service,1,IN_SERVICE,28,Clinton St & Jackson Blvd (*),,Chicago,60661,,,False,2019-02-01 18:14:29,K3_FULL,18012,True
id,stationName,availableDocks,totalDocks,latitude,longitude,statusValue,statusKey,status,availableBikes,stAddress1,stAddress2,city,postalCode,location,altitude,testStation,lastCommunicationTime,kioskType,landMark,is_renting
24,Fairbanks Ct & Grand Ave,0,15,41.89186,-87.62062,In Service,1,IN_SERVICE,14,Fairbanks Ct & Grand Ave,,Chicago,60611,240 E.Grand Ave.,,False,2019-02-01 18:15:03,K3_FULL,13262,True
233,Sangamon St & Washington Blvd (*),15,16,41.883165,-87.6511,In Service,1,IN_SERVICE,1,Sangamon St & Washington Blvd (*),,Chicago,60607,,,False,2019-02-01 18:14:08,K3_FULL,13409,True
289,Wells St & Concord Ln,8,19,41.912133,-87.634656,In Service,1,IN_SERVICE,10,Wells St & Concord Ln,Wells St & Concord Ln,Chicago,60614,,,False,2019-02-01 18:12:46,K3_FULL,13182,True
id,stationName,availableDocks,totalDocks,latitude,longitude,statusValue,statusKey,status,availableBikes,stAddress1,stAddress2,city,postalCode,location,altitude,testStation,lastCommunicationTime,kioskType,landMark,is_renting
7,Field Blvd & South Water St,17,19,41.88634906269,-87.6175165471,In Service,1,IN_SERVICE,2,Field Blvd & South Water St,,Chicago,60601,,,False,2019-02-01 18:15:00,K3_FULL,15534,True
24,Fairbanks Ct & Grand Ave,1,15,41.89186,-87.62062,In Service,1,IN_SERVICE,13,Fairbanks Ct & Grand Ave,,Chicago,60611,240 E.Grand Ave.,,False,2019-02-01 18:15:03,K3_FULL,13262,True
44,State St & Randolph St,6,27,41.8847302006,-87.6277335692,In Service,1,IN_SERVICE,21,State St & Randolph St,,Chicago,60601,,,False,2019-02-01 18:16:08,K3_FULL,13002,True
98,LaSalle St & Washington St,5,15,41.882664,-87.63253,In Service,1,IN_SERVICE,9,LaSalle St & Washington St,,Chicago,60602,,,False,2019-02-01 18:13:31,K3_FULL,13006,True
287,Franklin St & Monroe St,23,27,41.880317,-87.635185,In Service,1,IN_SERVICE,4,Franklin St & Monroe St,,Chicago,60606,,,False,2019-02-01 18:15:05,K3_FULL,13057,True
id,stationName,availableDocks,totalDocks,latitude,longitude,statusValue,statusKey,status,availableBikes,stAddress1,stAddress2,city,postalCode,location,altitude,testStation,lastCommunicationTime,kioskType,landMark,is_renting
66,Clinton St & Lake St,8,23,41.885637,-87.641823,In Service,1,IN_SERVICE,14,Clinton St & Lake St,,Chicago,60661,,,False,2019-02-01 18:12:50,K3_FULL,13021,True
482,Campbell Ave & Montrose Ave,10,15,41.96152593287,-87.6911650414,In Service,1,IN_SERVICE,5,Campbell Ave & Montrose Ave,,Chicago,60625,,,False,2019-02-01 18:13:36,K3_FULL,15623,True
id,stationName,availableDocks,totalDocks,latitude,longitude,statusValue,statusKey,status,availableBikes,stAddress1,stAddress2,city,postalCode,location,altitude,testStation,lastCommunicationTime,kioskType,landMark,is_renting
77,Clinton St & Madison St,5,31,41.882242,-87.641066,In Service,1,IN_SERVICE,25,Clinton St & Madison St,,Chicago,60661,5 N Clinton St,,False,2019-02-01 18:16:57,K3_FULL,13301,True
80,Aberdeen St & Monroe St,3,19,41.880419,-87.655519,In Service,1,IN_SERVICE,16,Aberdeen St & Monroe St,,Chicago,60607,,,False,2019-02-01 18:14:37,K3_FULL,13156,True
192,Canal St & Adams St,1,47,41.879255,-87.639904,In Service,1,IN_SERVICE,46,Canal St & Adams St,,Chicago,60661,,,False,2019-02-01 18:14:38,K3_FULL,13011,True
id,stationName,availableDocks,totalDocks,latitude,longitude,statusValue,statusKey,status,availableBikes,stAddress1,stAddress2,city,postalCode,location,altitude,testStation,lastCommunicationTime,kioskType,landMark,is_renting
199,Wabash Ave & Grand Ave,21,31,41.891466,-87.626761,In Service,1,IN_SERVICE,10,Wabash Ave & Grand Ave,,Chicago,60611,,,False,2019-02-01 18:16:24,K3_FULL,13004,True
219,Damen Ave & Cortland St,15,19,41.915983,-87.677335,In Service,1,IN_SERVICE,4,Damen Ave & Cortland St,,Chicago,60622,,,False,2019-02-01 18:13:20,K3_FULL,13133,True
id,stationName,availableDocks,totalDocks,latitude,longitude,statusValue,statusKey,status,availableBikes,stAddress1,stAddress2,city,postalCode,location,altitude,testStation,lastCommunicationTime,kioskType,landMark,is_renting
13,Wilton Ave & Diversey Pkwy,29,35,41.932418,-87.652705,In Service,1,IN_SERVICE,6,Wilton Ave & Diversey Pkwy,,Chicago,60614,2790 N.Wilton Ave,,False,2019-02-01 18:14:27,K3_FULL,13066,True
43,Michigan Ave & Washington St,16,43,41.8838927658,-87.6246491409,In Service,1,IN_SERVICE,26,Michigan Ave & Washington St,,Chicago,60602,120 N Michigan,,False,2019-02-01 18:14:32,K3_FULL,13001,True
194,Wabash Ave & Wacker Pl,11,19,41.886875,-87.62603,In Service,1,IN_SERVICE,8,Wabash Ave & Wacker Pl,,Chicago,60601,,,False,2019-02-01 18:16:16,K3_FULL,13339,True
id,stationName,availableDocks,totalDocks,latitude,longitude,statusValue,statusKey,status,availableBikes,stAddress1,stAddress2,city,postalCode,location,altitude,testStation,lastCommunicationTime,kioskType,landMark,is_renting
29,Noble St & Milwaukee Ave,15,15,41.90068,-87.6626,In Service,1,IN_SERVICE,0,Noble St & Milwaukee Ave,,Chicago,60642,1016 N. Noble St,,False,2019-02-01 18:17:49,K3_FULL,13290,True
510,Spaulding Ave & Division St,6,11,41.90270659438,-87.709219571,In Service,1,IN_SERVICE,5,Spaulding Ave & Division St,,Chicago,60651,,,False,2019-02-01 18:16:27,K3_FULL,15654,True
id,stationName,availableDocks,totalDocks,latitude,longitude,statusValue,statusKey,status,availableBikes,stAddress1,stAddress2,city,postalCode,location,altitude,testStation,lastCommunicationTime,kioskType,landMark,is_renting
199,Wabash Ave & Grand Ave,20,31,41.891466,-87.626761,In Service,1,IN_SERVICE,11,Wabash Ave & Grand Ave,,Chicago,60611,,,False,2019-02-01 18:16:24,K3_FULL,13004,True
288,Larrabee St & Armitage Ave,9,15,41.918084,-87.643749,In Service,1,IN_SERVICE,5,Larrabee St & Armitage Ave,,Chicago,60614,Off Street,,False,2019-02-01 18:16:43,K3_FULL,13184,True
310,Damen Ave & Charleston St,4,11,41.920082,-87.677855,In Service,1,IN_SERVICE,6,Damen Ave & Charleston St,,Chicago,60647,,,False,2019-02-01 18:16:05,K3_FULL,13288,True
id,stationName,availableDocks,totalDocks,latitude,longitude,statusValue,statusKey,status,availableBikes,stAddress1,stAddress2,city,postalCode,location,altitude,testStation,lastCommunicationTime,kioskType,landMark,is_renting
174,Canal St & Madison St,5,35,41.882091,-87.639833,In Service,1,IN_SERVICE,30,Canal St & Madison St,,Chicago ,60606,,,False,2019-02-01 18:18:45,K3_FULL,13341,True
199,Wabash Ave & Grand Ave,21,31,41.891466,-87.626761,In Service,1,IN_SERVICE,10,Wabash Ave & Grand Ave,,Chicago,60611,,,False,2019-02-01 18:16:24,K3_FULL,13004,True
223,Clifton Ave & Armitage Ave,5,15,41.918216,-87.656936,In Service,1,IN_SERVICE,10,Clifton Ave & Armitage Ave,,Chicago,60614,,,False,2019-02-01 18:16:16,K3_FULL,13185,True
286,Franklin St & Quincy St,11,23,41.878724,-87.634793,In Service,1,IN_SERVICE,12,Franklin St & Quincy St,,Chicago,60606,,,False,2019-02-01 18:16:51,K3_FULL,13007,True
638,Clinton St & Jackson Blvd (*),3,32,41.878419,-87.640977,In Service,1,IN_SERVICE,29,Clinton St & Jackson Blvd (*),,Chicago,60661,,,False,2019-02-01 18:18:55,K3_FULL,18012,True
id,stationName,availableDocks,totalDocks,latitude,longitude,statusValue,statusKey,status,availableBikes,stAddress1,stAddress2,city,postalCode,location,altitude,testStation,lastCommunicationTime,kioskType,landMark,is_renting
53,Wells St & Huron St,20,27,41.894722,-87.634362,In Service,1,IN_SERVICE,7,Wells St & Huron St,,Chicago,60654,,,False,2019-02-01 18:18:40,K3_FULL,13064,True
id,stationName,availableDocks,totalDocks,latitude,longitude,statusValue,statusKey,status,availableBikes,stAddress1,stAddress2,city,postalCode,location,altitude,testStation,lastCommunicationTime,kioskType,landMark,is_renting
290,Kedzie Ave & Palmer Ct,11,15,41.921525,-87.707322,In Service,1,IN_SERVICE,4,Kedzie Ave & Palmer Ct,,Chicago,60647,,,False,2019-02-01 18:18:41,K3_FULL,13292,True
294,Broadway & Berwyn Ave,15,15,41.978353,-87.659753,In Service,1,IN_SERVICE,0,Broadway & Berwyn Ave,,Chicago,60640,,,False,2019-02-01 18:20:04,K3_FULL,13109,True
627,LaSalle Dr & Huron St (*),11,20,41.894877,-87.632326,In Service,1,IN_SERVICE,9,LaSalle Dr & Huron St(*),,Chicago,60654,,,False,2019-02-01 18:19:45,K3_FULL,18064,True
id,stationName,availableDocks,totalDocks,latitude,longitude,statusValue,statusKey,status,availableBikes,stAddress1,stAddress2,city,postalCode,location,altitude,testStation,lastCommunicationTime,kioskType,landMark,is_renting
302,Sheffield Ave & Wrightwood Ave,8,30,41.928712,-87.653833,In Service,1,IN_SERVICE,22,Sheffield Ave & Wrightwood Ave,,Chicago,60614,,,False,2019-02-01 18:17:04,K3_FULL,13211,True
id,stationName,availableDocks,totalDocks,latitude,longitude,statusValue,statusKey,status,availableBikes,stAddress1,stAddress2,city,postalCode,location,altitude,testStation,lastCommunicationTime,kioskType,landMark,is_renting
53,Wells St & Huron St,21,27,41.894722,-87.634362,In Service,1,IN_SERVICE,6,Wells St & Huron St,,Chicago,60654,,,False,2019-02-01 18:18:40,K3_FULL,13064,True
107,Desplaines St & Jackson Blvd,16,27,41.878287,-87.643909,In Service,1,IN_SERVICE,11,Desplaines St & Jackson Blvd,,Chicago,60661,,,False,2019-02-01 18:19:45,K3_FULL,15539,True
174,Canal St & Madison St,6,35,41.882091,-87.639833,In Service,1,IN_SERVICE,29,Canal St & Madison St,,Chicago ,60606,,,False,2019-02-01 18:18:45,K3_FULL,13341,True
196,Cityfront Plaza Dr & Pioneer Ct,22,31,41.890573,-87.622072,In Service,1,IN_SERVICE,8,Cityfront Plaza Dr & Pioneer Ct,,Chicago,60611,,,False,2019-02-01 18:18:31,K3_FULL,13427,True
505,Winchester Ave & Elston Ave,7,15,41.92409085038,-87.6764600747,In Service,1,IN_SERVICE,8,Winchester Ave & Elston Ave,,Chicago,60614,,,False,2019-02-01 18:18:03,K3_FULL,15649,True
626,Delano Ct & Roosevelt Rd,12,19,41.867491,-87.63219,In Service,1,IN_SERVICE,7,Delano Ct & Roosevelt Rd,Roosevelt Collection Shops,Chicago,60605,,,False,2019-02-01 18:18:02,K3_FULL,17043,True
id,stationName,availableDocks,totalDocks,latitude,longitude,statusValue,statusKey,status,availableBikes,stAddress1,stAddress2,city,postalCode,location,altitude,testStation,lastCommunicationTime,kioskType,landMark,is_renting
186,Ogden Ave & Race Ave,2,15,41.891795,-87.658751,In Service,1,IN_SERVICE,10,Ogden Ave & Race Ave,,Chicago,60642,,,False,2019-02-01 18:20:32,K3_FULL,13194,True
210,Ashland Ave & Division St,8,27,41.90345,-87.667747,In Service,1,IN_SERVICE,19,Ashland Ave & Division St,,Chicago,60622,,,False,2019-02-01 18:21:35,K3_FULL,13061,True
220,Clark St & Drummond Pl,6,23,41.931248,-87.644336,In Service,1,IN_SERVICE,17,Clark St & Drummond Pl,,Chicago,60614,,,False,2019-02-01 18:19:36,K3_FULL,13123,True
327,Sheffield Ave & Webster Ave,1,19,41.92154,-87.653818,In Service,1,IN_SERVICE,18,Sheffield Ave & Webster Ave,,Chicago,60614,,,False,2019-02-01 18:22:13,K3_FULL,13188,True
id,stationName,availableDocks,totalDocks,latitude,longitude,statusValue,statusKey,status,availableBikes,stAddress1,stAddress2,city,postalCode,location,altitude,testStation,lastCommunicationTime,kioskType,landMark,is_renting
622,California Ave & Cortez St,10,15,41.900363,-87.696704,In Service,1,IN_SERVICE,5,California Ave & Cortez St,,Chicago,60622,,,False,2019-02-01 18:22:29,K3_FULL,17660,True
id,stationName,availableDocks,totalDocks,latitude,longitude,statusValue,statusKey,status,availableBikes,stAddress1,stAddress2,city,postalCode,location,altitude,testStation,lastCommunicationTime,kioskType,landMark,is_renting
81,Daley Center Plaza,14,39,41.884241,-87.629634,In Service,1,IN_SERVICE,24,Daley Center Plaza,,Chicago,60601,,,False,2019-02-01 18:21:42,K3_FULL,13023,True
255,Indiana Ave & Roosevelt Rd,11,39,41.867888,-87.623041,In Service,1,IN_SERVICE,28,Indiana Ave & Roosevelt Rd,,Chicago,60605,,,False,2019-02-01 18:21:16,K3_FULL,13309,True
id,stationName,availableDocks,totalDocks,latitude,longitude,statusValue,statusKey,status,availableBikes,stAddress1,stAddress2,city,postalCode,location,altitude,testStation,lastCommunicationTime,kioskType,landMark,is_renting
145,Mies van der Rohe Way & Chestnut St,1,19,41.8985866514,-87.6219152258,In Service,1,IN_SERVICE,18,Mies van der Rohe Way & Chestnut St,,Chicago,60611,,,False,2019-02-01 18:20:21,K3_FULL,15529,True
208,Ashland Ave & 21st St,8,14,41.85381,-87.665897,In Service,1,IN_SERVICE,6,Ashland Ave & 21st St,,Chicago,60608,,,False,2019-02-01 18:23:20,K3_FULL,13307,True
255,Indiana Ave & Roosevelt Rd,12,39,41.867888,-87.623041,In Service,1,IN_SERVICE,27,Indiana Ave & Roosevelt Rd,,Chicago,60605,,,False,2019-02-01 18:21:16,K3_FULL,13309,True
284,Michigan Ave & Jackson Blvd,13,23,41.87785,-87.62408,In Service,1,IN_SERVICE,10,Michigan Ave & Jackson Blvd,,Chicago,60604,,,False,2019-02-01 18:19:44,K3_FULL,13340,True
id,stationName,availableDocks,totalDocks,latitude,longitude,statusValue,statusKey,status,availableBikes,stAddress1,stAddress2,city,postalCode,location,altitude,testStation,lastCommunicationTime,kioskType,landMark,is_renting
31,Franklin St & Chicago Ave,17,23,41.896776,-87.635633,In Service,1,IN_SERVICE,6,Franklin St & Chicago Ave,,Chicago,60654,805 N. Franklin St,,False,2019-02-01 18:21:57,K3_FULL,13017,True
69,Damen Ave & Pierce Ave,18,23,41.9093960065,-87.6776919292,In Service,1,IN_SERVICE,3,Damen Ave & Pierce Ave,,Chicago,60622,2002 W Pierce Ave,,False,2019-02-01 18:21:01,K3_FULL,13065,True
133,Kingsbury St & Kinzie St,14,31,41.88917683258,-87.6385057718,In Service,1,IN_SERVICE,16,Kingsbury St & Kinzie St,,Chicago,60654,,,False,2019-02-01 18:23:41,K3_FULL,15532,True
id,stationName,availableDocks,totalDocks,latitude,longitude,statusValue,statusKey,status,availableBikes,stAddress1,stAddress2,city,postalCode,location,altitude,testStation,lastCommunicationTime,kioskType,landMark,is_renting
156,Clark St & Wellington Ave,9,15,41.9364968219,-87.6475386582,In Service,1,IN_SERVICE,6,Clark St & Wellington Ave,,Chicago ,60657,,,False,2019-02-01 18:24:18,K3_FULL,13232,True
240,Sheridan Rd & Irving Park Rd,20,27,41.954245,-87.654406,In Service,1,IN_SERVICE,7,Sheridan Rd & Irving Park Rd,,Chicago,60613,,,False,2019-02-01 18:24:58,K3_FULL,13063,True
463,Clark St & Berwyn Ave,16,19,41.9779966544,-87.6680471047,In Service,1,IN_SERVICE,3,Clark St & Berwyn Ave,,Chicago,60640,,,False,2019-02-01 18:26:08,K3_FULL,15580,True
id,stationName,availableDocks,totalDocks,latitude,longitude,statusValue,statusKey,status,availableBikes,stAddress1,stAddress2,city,postalCode,location,altitude,testStation,lastCommunicationTime,kioskType,landMark,is_renting
38,Clark St & Lake St,23,27,41.88602082773,-87.6308760584,In Service,1,IN_SERVICE,3,Clark St & Lake St,,Chicago,60601,,,False,2019-02-01 18:23:38,K3_FULL,15547,True
54,Ogden Ave & Chicago Ave,15,19,41.896362458,-87.6540612729,In Service,1,IN_SERVICE,3,Ogden Ave & Chicago Ave,,Chicago,60642,1040 W. Chicago Ave.,,False,2019-02-01 18:22:09,K3_FULL,13044,True
117,Wilton Ave & Belmont Ave,18,27,41.94018,-87.65304,In Service,1,IN_SERVICE,9,Wilton Ave & Belmont Ave,,Chicago,60657,,,False,2019-02-01 18:24:56,K3_FULL,13069,True
id,stationName,availableDocks,totalDocks,latitude,longitude,statusValue,statusKey,status,availableBikes,stAddress1,stAddress2,city,postalCode,location,altitude,testStation,lastCommunicationTime,kioskType,landMark,is_renting
81,Daley Center Plaza,13,39,41.884241,-87.629634,In Service,1,IN_SERVICE,25,Daley Center Plaza,,Chicago,60601,,,False,2019-02-01 18:25:58,K3_FULL,13023,True
91,Clinton St & Washington Blvd,10,31,41.88338,-87.64117,In Service,1,IN_SERVICE,21,Clinton St & Washington Blvd,,Chicago,60661,109 N Clinton St,,False,2019-02-01 18:23:56,K3_FULL,13010,True
id,stationName,availableDocks,totalDocks,latitude,longitude,statusValue,statusKey,status,availableBikes,stAddress1,stAddress2,city,postalCode,location,altitude,testStation,lastCommunicationTime,kioskType,landMark,is_renting
39,Wabash Ave & Adams St,22,23,41.87947235235,-87.6256886059,In Service,1,IN_SERVICE,1,Wabash Ave & Adams St,,Chicago,60603,,,False,2019-02-01 18:24:37,K3_FULL,15538,True
74,Kingsbury St & Erie St,19,23,41.893626,-87.641527,In Service,1,IN_SERVICE,4,Kingsbury St & Erie St,,Chicago,60654,511 W Erie St,,False,2019-02-01 18:23:26,K3_FULL,13265,True
81,Daley Center Plaza,15,39,41.884241,-87.629634,In Service,1,IN_SERVICE,23,Daley Center Plaza,,Chicago,60601,,,False,2019-02-01 18:25:58,K3_FULL,13023,True
84,Milwaukee Ave & Grand Ave,13,19,41.891578,-87.648384,In Service,1,IN_SERVICE,6,Milwaukee Ave & Grand Ave,,Chicago,60654,500 N Milwaukee Ave.,,False,2019-02-01 18:25:30,K3_FULL,13033,True
197,Michigan Ave & Madison St,9,19,41.882134,-87.625125,In Service,1,IN_SERVICE,10,Michigan Ave & Madison St,,Chicago,60602,,,False,2019-02-01 18:24:58,K3_FULL,13036,True
256,Broadway & Sheridan Rd,3,15,41.952833,-87.649993,In Service,1,IN_SERVICE,12,Broadway & Sheridan Rd,,Chicago,60613,,,False,2019-02-01 18:24:23,K3_FULL,13323,True
261,Hermitage Ave & Polk St,14,15,41.871514,-87.669886,In Service,1,IN_SERVICE,1,Hermitage Ave & Polk St,,Chicago,60612,,,False,2019-02-01 18:26:26,K3_FULL,13080,True
id,stationName,availableDocks,totalDocks,latitude,longitude,statusValue,statusKey,status,availableBikes,stAddress1,stAddress2,city,postalCode,location,altitude,testStation,lastCommunicationTime,kioskType,landMark,is_renting
39,Wabash Ave & Adams St,21,23,41.87947235235,-87.6256886059,In Service,1,IN_SERVICE,2,Wabash Ave & Adams St,,Chicago,60603,,,False,2019-02-01 18:24:37,K3_FULL,15538,True
id,stationName,availableDocks,totalDocks,latitude,longitude,statusValue,statusKey,status,availableBikes,stAddress1,stAddress2,city,postalCode,location,altitude,testStation,lastCommunicationTime,kioskType,landMark,is_renting
29,Noble St & Milwaukee Ave,14,15,41.90068,-87.6626,In Service,1,IN_SERVICE,1,Noble St & Milwaukee Ave,,Chicago,60642,1016 N. Noble St,,False,2019-02-01 18:27:00,K3_FULL,13290,True
39,Wabash Ave & Adams St,20,23,41.87947235235,-87.6256886059,In Service,1,IN_SERVICE,3,Wabash Ave & Adams St,,Chicago,60603,,,False,2019-02-01 18:24:37,K3_FULL,15538,True
260,Kedzie Ave & Milwaukee Ave,14,35,41.929567,-87.707857,In Service,1,IN_SERVICE,21,Kedzie Ave & Milwaukee Ave,,Chicago,60647,,,False,2019-02-01 18:26:47,K3_FULL,13085,True
282,Halsted St & Maxwell St,2,15,41.864883,-87.647071,In Service,1,IN_SERVICE,13,Halsted St & Maxwell St,,Chicago,60607,,,False,2019-02-01 18:25:36,K3_FULL,13161,True
id,stationName,availableDocks,totalDocks,latitude,longitude,statusValue,statusKey,status,availableBikes,stAddress1,stAddress2,city,postalCode,location,altitude,testStation,lastCommunicationTime,kioskType,landMark,is_renting
91,Clinton St & Washington Blvd,9,31,41.88338,-87.64117,In Service,1,IN_SERVICE,22,Clinton St & Washington Blvd,,Chicago,60661,109 N Clinton St,,False,2019-02-01 18:28:20,K3_FULL,13010,True
112,Green St & Randolph St,5,15,41.883668,-87.64867,In Service,1,IN_SERVICE,10,Green St & Randolph St,,Chicago ,60607,,,False,2019-02-01 18:27:05,K3_FULL,13053,True
130,Damen Ave & Division St,5,19,41.903266,-87.678435,In Service,1,IN_SERVICE,14,Damen Ave & Division St,,Chicago ,60622,,,False,2019-02-01 18:28:13,K3_FULL,13136,True
id,stationName,availableDocks,totalDocks,latitude,longitude,statusValue,statusKey,status,availableBikes,stAddress1,stAddress2,city,postalCode,location,altitude,testStation,lastCommunicationTime,kioskType,landMark,is_renting
81,Daley Center Plaza,16,39,41.884241,-87.629634,In Service,1,IN_SERVICE,22,Daley Center Plaza,,Chicago,60601,,,False,2019-02-01 18:25:58,K3_FULL,13023,True
84,Milwaukee Ave & Grand Ave,12,19,41.891578,-87.648384,In Service,1,IN_SERVICE,7,Milwaukee Ave & Grand Ave,,Chicago,60654,500 N Milwaukee Ave.,,False,2019-02-01 18:25:30,K3_FULL,13033,True
287,Franklin St & Monroe St,24,27,41.880317,-87.635185,In Service,1,IN_SERVICE,3,Franklin St & Monroe St,,Chicago,60606,,,False,2019-02-01 18:28:45,K3_FULL,13057,True
id,stationName,availableDocks,totalDocks,latitude,longitude,statusValue,statusKey,status,availableBikes,stAddress1,stAddress2,city,postalCode,location,altitude,testStation,lastCommunicationTime,kioskType,landMark,is_renting
18,Wacker Dr & Washington St,9,19,41.883132,-87.637321,In Service,1,IN_SERVICE,10,Wacker Dr & Washington St,,Chicago,60606,,,False,2019-02-01 18:28:13,K3_FULL,15536,True
24,Fairbanks Ct & Grand Ave,2,15,41.89186,-87.62062,In Service,1,IN_SERVICE,12,Fairbanks Ct & Grand Ave,,Chicago,60611,240 E.Grand Ave.,,False,2019-02-01 18:28:35,K3_FULL,13262,True
56,Desplaines St & Kinzie St,14,27,41.888716036,-87.6444478533,In Service,1,IN_SERVICE,13,Desplaines St & Kinzie St,,Chicago,60661,368 N. Desplaines St.,,False,2019-02-01 18:28:46,K3_FULL,13039,True
121,Blackstone Ave & Hyde Park Blvd,13,19,41.802562,-87.590368,In Service,1,IN_SERVICE,6,Blackstone Ave & Hyde Park Blvd,,Chicago,60615,,,False,2019-02-01 18:28:37,K3_FULL,13398,True
195,Columbus Dr & Randolph St,29,54,41.884728,-87.619521,In Service,1,IN_SERVICE,24,Columbus Dr & Randolph St,,Chicago,60601,,,False,2019-02-01 18:28:00,K3_FULL,13263,True
199,Wabash Ave & Grand Ave,20,31,41.891466,-87.626761,In Service,1,IN_SERVICE,11,Wabash Ave & Grand Ave,,Chicago,60611,,,False,2019-02-01 18:30:08,K3_FULL,13004,True
id,stationName,availableDocks,totalDocks,latitude,longitude,statusValue,statusKey,status,availableBikes,stAddress1,stAddress2,city,postalCode,location,altitude,testStation,lastCommunicationTime,kioskType,landMark,is_renting
118,Sedgwick St & North Ave,15,19,41.911386,-87.638677,In Service,1,IN_SERVICE,4,Sedgwick St & North Ave,,Chicago,60610,,,False,2019-02-01 18:29:22,K3_FULL,13070,True
169,Canal St & Harrison St,11,15,41.874255,-87.639573,In Service,1,IN_SERVICE,4,Canal St & Harrison St,,Chicago ,60607,,,False,2019-02-01 18:27:54,K3_FULL,13326,True
192,Canal St & Adams St,0,47,41.879255,-87.639904,In Service,1,IN_SERVICE,47,Canal St & Adams St,,Chicago,60661,,,False,2019-02-01 18:28:06,K3_FULL,13011,True
id,stationName,availableDocks,totalDocks,latitude,longitude,statusValue,statusKey,status,availableBikes,stAddress1,stAddress2,city,postalCode,location,altitude,testStation,lastCommunicationTime,kioskType,landMark,is_renting
39,Wabash Ave & Adams St,19,23,41.87947235235,-87.6256886059,In Service,1,IN_SERVICE,4,Wabash Ave & Adams St,,Chicago,60603,,,False,2019-02-01 18:29:08,K3_FULL,15538,True
91,Clinton St & Washington Blvd,10,31,41.88338,-87.64117,In Service,1,IN_SERVICE,21,Clinton St & Washington Blvd,,Chicago,60661,109 N Clinton St,,False,2019-02-01 18:28:20,K3_FULL,13010,True
142,McClurg Ct & Erie St,29,31,41.894503,-87.617854,In Service,1,IN_SERVICE,2,McClurg Ct & Erie St,,Chicago ,60611,660 N McClurg Ct,,False,2019-02-01 18:28:35,K3_FULL,15531,True
id,stationName,availableDocks,totalDocks,latitude,longitude,statusValue,statusKey,status,availableBikes,stAddress1,stAddress2,city,postalCode,location,altitude,testStation,lastCommunicationTime,kioskType,landMark,is_renting
39,Wabash Ave & Adams St,18,23,41.87947235235,-87.6256886059,In Service,1,IN_SERVICE,5,Wabash Ave & Adams St,,Chicago,60603,,,False,2019-02-01 18:29:08,K3_FULL,15538,True
id,stationName,availableDocks,totalDocks,latitude,longitude,statusValue,statusKey,status,availableBikes,stAddress1,stAddress2,city,postalCode,location,altitude,testStation,lastCommunicationTime,kioskType,landMark,is_renting
39,Wabash Ave & Adams St,17,23,41.87947235235,-87.6256886059,In Service,1,IN_SERVICE,6,Wabash Ave & Adams St,,Chicago,60603,,,False,2019-02-01 18:29:08,K3_FULL,15538,True
115,Sheffield Ave & Wellington Ave,20,23,41.936266,-87.652662,In Service,1,IN_SERVICE,3,Sheffield Ave & Wellington Ave,,Chicago,60657,,,False,2019-02-01 18:30:12,K3_FULL,13067,True
172,Rush St & Cedar St,3,11,41.90230870122,-87.627690528,In Service,1,IN_SERVICE,8,Rush St & Cedar St,,Chicago,60611,,,False,2019-02-01 18:28:25,K3_FULL,15525,True
283,LaSalle St & Jackson Blvd,24,35,41.878166,-87.631929,In Service,1,IN_SERVICE,11,LaSalle St & Jackson Blvd,,Chicago,60604,,,False,2019-02-01 18:28:20,K3_FULL,13032,True
292,Southport Ave & Clark St,4,11,41.957081,-87.664199,In Service,1,IN_SERVICE,7,Southport Ave & Clark St,,Chicago,60613,,,False,2019-02-01 18:28:52,K3_FULL,13317,True
id,stationName,availableDocks,totalDocks,latitude,longitude,statusValue,statusKey,status,availableBikes,stAddress1,stAddress2,city,postalCode,location,altitude,testStation,lastCommunicationTime,kioskType,landMark,is_renting
39,Wabash Ave & Adams St,16,23,41.87947235235,-87.6256886059,In Service,1,IN_SERVICE,7,Wabash Ave & Adams St,,Chicago,60603,,,False,2019-02-01 18:29:08,K3_FULL,15538,True
238,Wolcott (Ravenswood) Ave & Montrose Ave (*),13,16,41.961406,-87.676169,In Service,1,IN_SERVICE,3,Wolcott (Ravenswood) Ave & Montrose Ave (*),,Chicago,60613,,,False,2019-02-01 18:30:37,K3_FULL,13092,True
296,Broadway & Belmont Ave,7,19,41.940106,-87.645451,In Service,1,IN_SERVICE,12,Broadway & Belmont Ave,,Chicago,60634,,,False,2019-02-01 18:32:20,K3_FULL,13277,True
334,Lake Shore Dr & Belmont Ave,11,19,41.940775,-87.639192,In Service,1,IN_SERVICE,8,Lake Shore Dr & Belmont Ave,,Chicago,60657,,,False,2019-02-01 18:32:15,K3_FULL,13233,True
460,Clark St & Bryn Mawr Ave,6,15,41.983593,-87.669154,In Service,1,IN_SERVICE,9,Clark St & Bryn Mawr Ave,,Chicago,60660,,,False,2019-02-01 18:29:30,K3_FULL,15577,True
id,stationName,availableDocks,totalDocks,latitude,longitude,statusValue,statusKey,status,availableBikes,stAddress1,stAddress2,city,postalCode,location,altitude,testStation,lastCommunicationTime,kioskType,landMark,is_renting
18,Wacker Dr & Washington St,8,19,41.883132,-87.637321,In Service,1,IN_SERVICE,11,Wacker Dr & Washington St,,Chicago,60606,,,False,2019-02-01 18:32:47,K3_FULL,15536,True
39,Wabash Ave & Adams St,15,23,41.87947235235,-87.6256886059,In Service,1,IN_SERVICE,8,Wabash Ave & Adams St,,Chicago,60603,,,False,2019-02-01 18:29:08,K3_FULL,15538,True
112,Green St & Randolph St,4,15,41.883668,-87.64867,In Service,1,IN_SERVICE,11,Green St & Randolph St,,Chicago ,60607,,,False,2019-02-01 18:31:43,K3_FULL,13053,True
133,Kingsbury St & Kinzie St,15,31,41.88917683258,-87.6385057718,In Service,1,IN_SERVICE,15,Kingsbury St & Kinzie St,,Chicago,60654,,,False,2019-02-01 18:33:01,K3_FULL,15532,True
264,Stetson Ave & South Water St,16,19,41.886835,-87.62232,In Service,1,IN_SERVICE,2,Stetson Ave & South Water St,,Chicago,60601,,,False,2019-02-01 18:30:34,K3_FULL,13048,True
289,Wells St & Concord Ln,7,19,41.912133,-87.634656,In Service,1,IN_SERVICE,11,Wells St & Concord Ln,Wells St & Concord Ln,Chicago,60614,,,False,2019-02-01 18:31:32,K3_FULL,13182,True
id,stationName,availableDocks,totalDocks,latitude,longitude,statusValue,statusKey,status,availableBikes,stAddress1,stAddress2,city,postalCode,location,altitude,testStation,lastCommunicationTime,kioskType,landMark,is_renting
90,Millennium Park,13,47,41.8810317,-87.62408432,In Service,1,IN_SERVICE,34,Millennium Park,,Chicago,60601,33 S Michigan Ave,,False,2019-02-01 18:31:12,K3_FULL,13008,True
111,Sedgwick St & Huron St,13,27,41.894666,-87.638437,In Service,1,IN_SERVICE,14,Sedgwick St & Huron St,,Chicago,60654,,,False,2019-02-01 18:32:45,K3_FULL,13052,True
287,Franklin St & Monroe St,22,27,41.880317,-87.635185,In Service,1,IN_SERVICE,5,Franklin St & Monroe St,,Chicago,60606,,,False,2019-02-01 18:33:20,K3_FULL,13057,True
id,stationName,availableDocks,totalDocks,latitude,longitude,statusValue,statusKey,status,availableBikes,stAddress1,stAddress2,city,postalCode,location,altitude,testStation,lastCommunicationTime,kioskType,landMark,is_renting
287,Franklin St & Monroe St,21,27,41.880317,-87.635185,In Service,1,IN_SERVICE,6,Franklin St & Monroe St,,Chicago,60606,,,False,2019-02-01 18:33:20,K3_FULL,13057,True
id,stationName,availableDocks,totalDocks,latitude,longitude,statusValue,statusKey,status,availableBikes,stAddress1,stAddress2,city,postalCode,location,altitude,testStation,lastCommunicationTime,kioskType,landMark,is_renting
29,Noble St & Milwaukee Ave,13,15,41.90068,-87.6626,In Service,1,IN_SERVICE,2,Noble St & Milwaukee Ave,,Chicago,60642,1016 N. Noble St,,False,2019-02-01 18:31:36,K3_FULL,13290,True
186,Ogden Ave & Race Ave,1,15,41.891795,-87.658751,In Service,1,IN_SERVICE,11,Ogden Ave & Race Ave,,Chicago,60642,,,False,2019-02-01 18:34:08,K3_FULL,13194,True
287,Franklin St & Monroe St,20,27,41.880317,-87.635185,In Service,1,IN_SERVICE,7,Franklin St & Monroe St,,Chicago,60606,,,False,2019-02-01 18:33:20,K3_FULL,13057,True
id,stationName,availableDocks,totalDocks,latitude,longitude,statusValue,statusKey,status,availableBikes,stAddress1,stAddress2,city,postalCode,location,altitude,testStation,lastCommunicationTime,kioskType,landMark,is_renting
18,Wacker Dr & Washington St,7,19,41.883132,-87.637321,In Service,1,IN_SERVICE,12,Wacker Dr & Washington St,,Chicago,60606,,,False,2019-02-01 18:32:47,K3_FULL,15536,True
91,Clinton St & Washington Blvd,11,31,41.88338,-87.64117,In Service,1,IN_SERVICE,20,Clinton St & Washington Blvd,,Chicago,60661,109 N Clinton St,,False,2019-02-01 18:32:46,K3_FULL,13010,True
118,Sedgwick St & North Ave,14,19,41.911386,-87.638677,In Service,1,IN_SERVICE,5,Sedgwick St & North Ave,,Chicago,60610,,,False,2019-02-01 18:33:49,K3_FULL,13070,True
161,Rush St & Superior St,15,23,41.89576474564,-87.6259080327,In Service,1,IN_SERVICE,8,Rush St & Superior St,,Chicago,60611,,,False,2019-02-01 18:34:57,K3_FULL,15530,True
163,Damen Ave & Clybourn Ave,7,15,41.931931,-87.677856,In Service,1,IN_SERVICE,8,Damen Ave & Clybourn Ave,,Chicago,60614,,,False,2019-02-01 18:34:43,K3_FULL,13271,True
287,Franklin St & Monroe St,18,27,41.880317,-87.635185,In Service,1,IN_SERVICE,9,Franklin St & Monroe St,,Chicago,60606,,,False,2019-02-01 18:33:20,K3_FULL,13057,True
619,Keystone Ave & Fullerton Ave,8,11,41.924377,-87.728231,In Service,1,IN_SERVICE,3,Keystone Ave & Fullerton Ave,,Chicago,60639,,,False,2019-02-01 18:33:39,K3_FULL,16010,True
id,stationName,availableDocks,totalDocks,latitude,longitude,statusValue,statusKey,status,availableBikes,stAddress1,stAddress2,city,postalCode,location,altitude,testStation,lastCommunicationTime,kioskType,landMark,is_renting
74,Kingsbury St & Erie St,18,23,41.893626,-87.641527,In Service,1,IN_SERVICE,5,Kingsbury St & Erie St,,Chicago,60654,511 W Erie St,,False,2019-02-01 18:32:37,K3_FULL,13265,True
217,Racine Ave (May St) & Fulton St,9,14,41.886926,-87.656919,In Service,1,IN_SERVICE,5,Racine Ave (May St) & Fulton St,,Chicago,60607,,,False,2019-02-01 18:32:33,K3_FULL,13197,True
286,Franklin St & Quincy St,12,23,41.878724,-87.634793,In Service,1,IN_SERVICE,11,Franklin St & Quincy St,,Chicago,60606,,,False,2019-02-01 18:35:00,K3_FULL,13007,True
287,Franklin St & Monroe St,17,27,41.880317,-87.635185,In Service,1,IN_SERVICE,10,Franklin St & Monroe St,,Chicago,60606,,,False,2019-02-01 18:33:20,K3_FULL,13057,True
628,Walsh Park,13,23,41.91461,-87.667968,In Service,1,IN_SERVICE,10,Walsh Park,Walsh Park,Chicago,60622,Off-Street,,False,2019-02-01 18:33:05,K3_FULL,18067,True
id,stationName,availableDocks,totalDocks,latitude,longitude,statusValue,statusKey,status,availableBikes,stAddress1,stAddress2,city,postalCode,location,altitude,testStation,lastCommunicationTime,kioskType,landMark,is_renting
161,Rush St & Superior St,14,23,41.89576474564,-87.6259080327,In Service,1,IN_SERVICE,9,Rush St & Superior St,,Chicago,60611,,,False,2019-02-01 18:34:57,K3_FULL,15530,True
id,stationName,availableDocks,totalDocks,latitude,longitude,statusValue,statusKey,status,availableBikes,stAddress1,stAddress2,city,postalCode,location,altitude,testStation,lastCommunicationTime,kioskType,landMark,is_renting
54,Ogden Ave & Chicago Ave,14,19,41.896362458,-87.6540612729,In Service,1,IN_SERVICE,4,Ogden Ave & Chicago Ave,,Chicago,60642,1040 W. Chicago Ave.,,False,2019-02-01 18:35:36,K3_FULL,13044,True
id,stationName,availableDocks,totalDocks,latitude,longitude,statusValue,statusKey,status,availableBikes,stAddress1,stAddress2,city,postalCode,location,altitude,testStation,lastCommunicationTime,kioskType,landMark,is_renting
117,Wilton Ave & Belmont Ave,19,27,41.94018,-87.65304,In Service,1,IN_SERVICE,8,Wilton Ave & Belmont Ave,,Chicago,60657,,,False,2019-02-01 18:34:04,K3_FULL,13069,True
287,Franklin St & Monroe St,15,27,41.880317,-87.635185,In Service,1,IN_SERVICE,12,Franklin St & Monroe St,,Chicago,60606,,,False,2019-02-01 18:33:20,K3_FULL,13057,True
id,stationName,availableDocks,totalDocks,latitude,longitude,statusValue,statusKey,status,availableBikes,stAddress1,stAddress2,city,postalCode,location,altitude,testStation,lastCommunicationTime,kioskType,landMark,is_renting
206,Halsted St & Archer Ave,10,15,41.847203,-87.646795,In Service,1,IN_SERVICE,5,Halsted St & Archer Ave,,Chicago,60608,,,False,2019-02-01 18:36:48,K3_FULL,13098,True
id,stationName,availableDocks,totalDocks,latitude,longitude,statusValue,statusKey,status,availableBikes,stAddress1,stAddress2,city,postalCode,location,altitude,testStation,lastCommunicationTime,kioskType,landMark,is_renting
195,Columbus Dr & Randolph St,30,54,41.884728,-87.619521,In Service,1,IN_SERVICE,23,Columbus Dr & Randolph St,,Chicago,60601,,,False,2019-02-01 18:36:32,K3_FULL,13263,True
485,Sawyer Ave & Irving Park Rd,9,15,41.95358617895,-87.7093107999,In Service,1,IN_SERVICE,6,Sawyer Ave & Irving Park Rd,,Chicago,60618,,,False,2019-02-01 18:35:38,K3_FULL,15626,True
id,stationName,availableDocks,totalDocks,latitude,longitude,statusValue,statusKey,status,availableBikes,stAddress1,stAddress2,city,postalCode,location,altitude,testStation,lastCommunicationTime,kioskType,landMark,is_renting
130,Damen Ave & Division St,6,19,41.903266,-87.678435,In Service,1,IN_SERVICE,13,Damen Ave & Division St,,Chicago ,60622,,,False,2019-02-01 18:37:24,K3_FULL,13136,True
210,Ashland Ave & Division St,7,27,41.90345,-87.667747,In Service,1,IN_SERVICE,20,Ashland Ave & Division St,,Chicago,60622,,,False,2019-02-01 18:35:30,K3_FULL,13061,True
256,Broadway & Sheridan Rd,2,15,41.952833,-87.649993,In Service,1,IN_SERVICE,13,Broadway & Sheridan Rd,,Chicago,60613,,,False,2019-02-01 18:37:38,K3_FULL,13323,True
id,stationName,availableDocks,totalDocks,latitude,longitude,statusValue,statusKey,status,availableBikes,stAddress1,stAddress2,city,postalCode,location,altitude,testStation,lastCommunicationTime,kioskType,landMark,is_renting
47,State St & Kinzie St,26,30,41.889187,-87.627754,In Service,1,IN_SERVICE,4,State St & Kinzie St,,Chicago,60654,5 E Kinzie St,,False,2019-02-01 18:37:15,K3_FULL,13050,True
423,University Ave & 57th St,9,31,41.791478,-87.599861,In Service,1,IN_SERVICE,22,University Ave & 57th St,,Chicago,60637,Off Street,,False,2019-02-01 18:37:38,K3_FULL,15478,True
636,Orleans St & Hubbard St (*),7,12,41.890028,-87.636618,In Service,1,IN_SERVICE,5,Orleans St & Hubbard St (*),,Chicago,60654,,,False,2019-02-01 18:35:47,K3_FULL,18005,True
id,stationName,availableDocks,totalDocks,latitude,longitude,statusValue,statusKey,status,availableBikes,stAddress1,stAddress2,city,postalCode,location,altitude,testStation,lastCommunicationTime,kioskType,landMark,is_renting
158,Milwaukee Ave & Wabansia Ave,11,15,41.912616,-87.681391,In Service,1,IN_SERVICE,4,Milwaukee Ave & Wabansia Ave,,Chicago ,60647,,,False,2019-02-01 18:35:46,K3_FULL,13243,True
217,Racine Ave (May St) & Fulton St,8,14,41.886926,-87.656919,In Service,1,IN_SERVICE,6,Racine Ave (May St) & Fulton St,,Chicago,60607,,,False,2019-02-01 18:37:07,K3_FULL,13197,True
636,Orleans St & Hubbard St (*),8,12,41.890028,-87.636618,In Service,1,IN_SERVICE,4,Orleans St & Hubbard St (*),,Chicago,60654,,,False,2019-02-01 18:35:47,K3_FULL,18005,True
id,stationName,availableDocks,totalDocks,latitude,longitude,statusValue,statusKey,status,availableBikes,stAddress1,stAddress2,city,postalCode,location,altitude,testStation,lastCommunicationTime,kioskType,landMark,is_renting
41,Federal St & Polk St,10,19,41.87207763285,-87.6295437729,In Service,1,IN_SERVICE,9,Federal St & Polk St,,Chicago,60605,,,False,2019-02-01 18:37:27,K3_FULL,15543,True
51,Clark St & Randolph St,32,39,41.884576228,-87.63188991,In Service,1,IN_SERVICE,6,Clark St & Randolph St,,Chicago,60601,120 W. Randolph St.,,False,2019-02-01 18:37:25,K3_FULL,13005,True
131,Lincoln Ave & Belmont Ave,9,15,41.939365,-87.668385,In Service,1,IN_SERVICE,6,Lincoln Ave & Belmont Ave,,Chicago ,60657,,,False,2019-02-01 18:38:09,K3_FULL,13140,True
134,Peoria St & Jackson Blvd,5,19,41.877749,-87.649633,In Service,1,IN_SERVICE,14,Peoria St & Jackson Blvd,,Chicago,60607,,,False,2019-02-01 18:38:19,K3_FULL,13158,True
203,Western Ave & 21st St,13,15,41.854109,-87.685838,In Service,1,IN_SERVICE,2,Western Ave & 21st St,,Chicago,60608,,,False,2019-02-01 18:38:07,K3_FULL,13091,True
id,stationName,availableDocks,totalDocks,latitude,longitude,statusValue,statusKey,status,availableBikes,stAddress1,stAddress2,city,postalCode,location,altitude,testStation,lastCommunicationTime,kioskType,landMark,is_renting
59,Wabash Ave & Roosevelt Rd,8,23,41.867227,-87.625961,In Service,1,IN_SERVICE,15,Wabash Ave & Roosevelt Rd,,Chicago,60605,1210 S Wabash Ave,,False,2019-02-01 18:38:59,K3_FULL,13031,True
id,stationName,availableDocks,totalDocks,latitude,longitude,statusValue,statusKey,status,availableBikes,stAddress1,stAddress2,city,postalCode,location,altitude,testStation,lastCommunicationTime,kioskType,landMark,is_renting
192,Canal St & Adams St,1,47,41.879255,-87.639904,In Service,1,IN_SERVICE,46,Canal St & Adams St,,Chicago,60661,,,False,2019-02-01 18:41:27,K3_FULL,13011,True
267,Lake Park Ave & 47th St,5,15,41.809443,-87.591875,In Service,1,IN_SERVICE,10,Lake Park Ave & 47th St,,Chicago,60615,,,False,2019-02-01 18:39:35,K3_FULL,13117,True
350,Ashland Ave & Chicago Ave,1,15,41.895966,-87.667747,In Service,1,IN_SERVICE,14,Ashland Ave & Chicago Ave,,Chicago,60622,,,False,2019-02-01 18:37:50,K3_FULL,13247,True
id,stationName,availableDocks,totalDocks,latitude,longitude,statusValue,statusKey,status,availableBikes,stAddress1,stAddress2,city,postalCode,location,altitude,testStation,lastCommunicationTime,kioskType,landMark,is_renting
174,Canal St & Madison St,5,35,41.882091,-87.639833,In Service,1,IN_SERVICE,30,Canal St & Madison St,,Chicago ,60606,,,False,2019-02-01 18:41:23,K3_FULL,13341,True
192,Canal St & Adams St,2,47,41.879255,-87.639904,In Service,1,IN_SERVICE,45,Canal St & Adams St,,Chicago,60661,,,False,2019-02-01 18:41:27,K3_FULL,13011,True
id,stationName,availableDocks,totalDocks,latitude,longitude,statusValue,statusKey,status,availableBikes,stAddress1,stAddress2,city,postalCode,location,altitude,testStation,lastCommunicationTime,kioskType,landMark,is_renting
192,Canal St & Adams St,3,47,41.879255,-87.639904,In Service,1,IN_SERVICE,44,Canal St & Adams St,,Chicago,60661,,,False,2019-02-01 18:41:27,K3_FULL,13011,True
id,stationName,availableDocks,totalDocks,latitude,longitude,statusValue,statusKey,status,availableBikes,stAddress1,stAddress2,city,postalCode,location,altitude,testStation,lastCommunicationTime,kioskType,landMark,is_renting
60,Dayton St & North Ave,17,19,41.9105780349,-87.6494219288,In Service,1,IN_SERVICE,2,Dayton St & North Ave,,Chicago,60642,1575 N Dayton St,,False,2019-02-01 18:39:52,K3_FULL,13058,True
177,Theater on the Lake,22,31,41.926277,-87.630834,In Service,1,IN_SERVICE,9,Theater on the Lake,,Chicago ,60614,,,False,2019-02-01 18:41:54,K3_FULL,13350 ,True
213,Leavitt St & North Ave,14,15,41.910153,-87.68229,In Service,1,IN_SERVICE,1,Leavitt St & North Ave,,Chicago,60622,,,False,2019-02-01 18:39:44,K3_FULL,13244,True
id,stationName,availableDocks,totalDocks,latitude,longitude,statusValue,statusKey,status,availableBikes,stAddress1,stAddress2,city,postalCode,location,altitude,testStation,lastCommunicationTime,kioskType,landMark,is_renting
127,Lincoln Ave & Fullerton Ave,10,15,41.925905,-87.64926,In Service,1,IN_SERVICE,5,Lincoln Ave & Fullerton Ave,,Chicago ,60614,,,False,2019-02-01 18:39:41,K3_FULL,13131,True
177,Theater on the Lake,23,31,41.926277,-87.630834,In Service,1,IN_SERVICE,8,Theater on the Lake,,Chicago ,60614,,,False,2019-02-01 18:41:54,K3_FULL,13350 ,True
192,Canal St & Adams St,4,47,41.879255,-87.639904,In Service,1,IN_SERVICE,43,Canal St & Adams St,,Chicago,60661,,,False,2019-02-01 18:41:27,K3_FULL,13011,True
id,stationName,availableDocks,totalDocks,latitude,longitude,statusValue,statusKey,status,availableBikes,stAddress1,stAddress2,city,postalCode,location,altitude,testStation,lastCommunicationTime,kioskType,landMark,is_renting
58,Marshfield Ave & Cortland St,22,23,41.916017,-87.668879,In Service,1,IN_SERVICE,1,Marshfield Ave & Cortland St,,Chicago,60622,,,False,2019-02-01 18:42:22,K3_FULL,13025,True
192,Canal St & Adams St,5,47,41.879255,-87.639904,In Service,1,IN_SERVICE,42,Canal St & Adams St,,Chicago,60661,,,False,2019-02-01 18:41:27,K3_FULL,13011,True
id,stationName,availableDocks,totalDocks,latitude,longitude,statusValue,statusKey,status,availableBikes,stAddress1,stAddress2,city,postalCode,location,altitude,testStation,lastCommunicationTime,kioskType,landMark,is_renting
192,Canal St & Adams St,6,47,41.879255,-87.639904,In Service,1,IN_SERVICE,41,Canal St & Adams St,,Chicago,60661,,,False,2019-02-01 18:41:27,K3_FULL,13011,True
364,Larrabee St & Oak St,4,19,41.90021949323,-87.6429854676,In Service,1,IN_SERVICE,15,Larrabee St & Oak St,,Chicago,60610,,,False,2019-02-01 18:42:39,K3_FULL,15527,True
id,stationName,availableDocks,totalDocks,latitude,longitude,statusValue,statusKey,status,availableBikes,stAddress1,stAddress2,city,postalCode,location,altitude,testStation,lastCommunicationTime,kioskType,landMark,is_renting
145,Mies van der Rohe Way & Chestnut St,0,19,41.8985866514,-87.6219152258,In Service,1,IN_SERVICE,19,Mies van der Rohe Way & Chestnut St,,Chicago,60611,,,False,2019-02-01 18:44:50,K3_FULL,15529,True
192,Canal St & Adams St,7,47,41.879255,-87.639904,In Service,1,IN_SERVICE,40,Canal St & Adams St,,Chicago,60661,,,False,2019-02-01 18:41:27,K3_FULL,13011,True
id,stationName,availableDocks,totalDocks,latitude,longitude,statusValue,statusKey,status,availableBikes,stAddress1,stAddress2,city,postalCode,location,altitude,testStation,lastCommunicationTime,kioskType,landMark,is_renting
41,Federal St & Polk St,11,19,41.87207763285,-87.6295437729,In Service,1,IN_SERVICE,8,Federal St & Polk St,,Chicago,60605,,,False,2019-02-01 18:42:19,K3_FULL,15543,True
81,Daley Center Plaza,17,39,41.884241,-87.629634,In Service,1,IN_SERVICE,21,Daley Center Plaza,,Chicago,60601,,,False,2019-02-01 18:43:01,K3_FULL,13023,True
192,Canal St & Adams St,8,47,41.879255,-87.639904,In Service,1,IN_SERVICE,39,Canal St & Adams St,,Chicago,60661,,,False,2019-02-01 18:45:53,K3_FULL,13011,True
id,stationName,availableDocks,totalDocks,latitude,longitude,statusValue,statusKey,status,availableBikes,stAddress1,stAddress2,city,postalCode,location,altitude,testStation,lastCommunicationTime,kioskType,landMark,is_renting
48,Larrabee St & Kingsbury St,23,43,41.897764,-87.642884,In Service,1,IN_SERVICE,20,Larrabee St & Kingsbury St,,Chicago,60610,840 N Larrabee St,,False,2019-02-01 18:44:16,K3_FULL,13012,True
96,Desplaines St & Randolph St,21,22,41.88461618962,-87.6445705849,In Service,1,IN_SERVICE,1,Desplaines St & Randolph St,,Chicago,60661,,,False,2019-02-01 18:44:15,K3_FULL,15535,True
id,stationName,availableDocks,totalDocks,latitude,longitude,statusValue,statusKey,status,availableBikes,stAddress1,stAddress2,city,postalCode,location,altitude,testStation,lastCommunicationTime,kioskType,landMark,is_renting
38,Clark St & Lake St,24,27,41.88602082773,-87.6308760584,In Service,1,IN_SERVICE,2,Clark St & Lake St,,Chicago,60601,,,False,2019-02-01 18:46:30,K3_FULL,15547,True
54,Ogden Ave & Chicago Ave,13,19,41.896362458,-87.6540612729,In Service,1,IN_SERVICE,5,Ogden Ave & Chicago Ave,,Chicago,60642,1040 W. Chicago Ave.,,False,2019-02-01 18:44:53,K3_FULL,13044,True
69,Damen Ave & Pierce Ave,17,23,41.9093960065,-87.6776919292,In Service,1,IN_SERVICE,4,Damen Ave & Pierce Ave,,Chicago,60622,2002 W Pierce Ave,,False,2019-02-01 18:43:00,K3_FULL,13065,True
77,Clinton St & Madison St,7,31,41.882242,-87.641066,In Service,1,IN_SERVICE,23,Clinton St & Madison St,,Chicago,60661,5 N Clinton St,,False,2019-02-01 18:44:25,K3_FULL,13301,True
216,California Ave & Division St,9,15,41.903029,-87.697474,In Service,1,IN_SERVICE,6,California Ave & Division St,,Chicago,60622,,,False,2019-02-01 18:45:11,K3_FULL,13256,True
id,stationName,availableDocks,totalDocks,latitude,longitude,statusValue,statusKey,status,availableBikes,stAddress1,stAddress2,city,postalCode,location,altitude,testStation,lastCommunicationTime,kioskType,landMark,is_renting
77,Clinton St & Madison St,8,31,41.882242,-87.641066,In Service,1,IN_SERVICE,22,Clinton St & Madison St,,Chicago,60661,5 N Clinton St,,False,2019-02-01 18:44:25,K3_FULL,13301,True
160,Campbell Ave & North Ave,7,15,41.910535,-87.689556,In Service,1,IN_SERVICE,8,Campbell Ave & North Ave,,Chicago,60647,,,False,2019-02-01 18:43:00,K3_FULL,13257,True
164,Franklin St & Lake St,17,27,41.885837,-87.6355,In Service,1,IN_SERVICE,10,Franklin St & Lake St,,Chicago,60606,,,False,2019-02-01 18:46:55,K3_FULL,13272,True
260,Kedzie Ave & Milwaukee Ave,13,35,41.929567,-87.707857,In Service,1,IN_SERVICE,22,Kedzie Ave & Milwaukee Ave,,Chicago,60647,,,False,2019-02-01 18:45:16,K3_FULL,13085,True
id,stationName,availableDocks,totalDocks,latitude,longitude,statusValue,statusKey,status,availableBikes,stAddress1,stAddress2,city,postalCode,location,altitude,testStation,lastCommunicationTime,kioskType,landMark,is_renting
42,Wabash Ave & Cermak Rd,6,11,41.852619,-87.626488,In Service,1,IN_SERVICE,5,Wabash Ave & Cermak Rd,CTA Green Line - Cermak Stop,Chicago,60616,13 E Cermak Rd,,False,2019-02-01 18:45:16,K3_FULL,13170,True
113,Bissell St & Armitage Ave,4,15,41.91844,-87.65222,In Service,1,IN_SERVICE,11,Bissell St & Armitage Ave,,Chicago ,60614,,,False,2019-02-01 18:47:01,K3_FULL,13059,True
260,Kedzie Ave & Milwaukee Ave,14,35,41.929567,-87.707857,In Service,1,IN_SERVICE,21,Kedzie Ave & Milwaukee Ave,,Chicago,60647,,,False,2019-02-01 18:45:16,K3_FULL,13085,True
499,Kosciuszko Park,6,15,41.93058537138,-87.7237773635,In Service,1,IN_SERVICE,9,Kosciuszko Park,,Chicago,60647,,,False,2019-02-01 18:45:18,K3_FULL,15643,True
520,Greenview Ave & Jarvis Ave,12,19,42.015962,-87.66857,In Service,1,IN_SERVICE,7,Greenview Ave & Jarvis Ave,,Chicago,60626,,,False,2019-02-01 18:45:41,K3_FULL,16805,True
id,stationName,availableDocks,totalDocks,latitude,longitude,statusValue,statusKey,status,availableBikes,stAddress1,stAddress2,city,postalCode,location,altitude,testStation,lastCommunicationTime,kioskType,landMark,is_renting
144,Larrabee St & Webster Ave,10,19,41.921822,-87.64414,In Service,1,IN_SERVICE,9,Larrabee St & Webster Ave,,Chicago ,60614,,,False,2019-02-01 18:46:33,K3_FULL,13193,True
413,Woodlawn Ave & Lake Park Ave,8,15,41.81409271048,-87.5970051479,In Service,1,IN_SERVICE,7,Woodlawn Ave & Lake Park Ave,,Chicago,60653,,,False,2019-02-01 18:45:47,K3_FULL,15455,True
id,stationName,availableDocks,totalDocks,latitude,longitude,statusValue,statusKey,status,availableBikes,stAddress1,stAddress2,city,postalCode,location,altitude,testStation,lastCommunicationTime,kioskType,landMark,is_renting
176,Clark St & Elm St,11,39,41.902973,-87.63128,In Service,1,IN_SERVICE,28,Clark St & Elm St,,Chicago ,60610,,,False,2019-02-01 18:46:49,K3_FULL,13349,True
192,Canal St & Adams St,9,47,41.879255,-87.639904,In Service,1,IN_SERVICE,38,Canal St & Adams St,,Chicago,60661,,,False,2019-02-01 18:45:53,K3_FULL,13011,True
id,stationName,availableDocks,totalDocks,latitude,longitude,statusValue,statusKey,status,availableBikes,stAddress1,stAddress2,city,postalCode,location,altitude,testStation,lastCommunicationTime,kioskType,landMark,is_renting
37,Dearborn St & Adams St,17,19,41.8793563587,-87.6297910363,In Service,1,IN_SERVICE,2,Dearborn St & Adams St,,Chicago,60603,59 W. Adams St ,,False,2019-02-01 18:45:35,K3_FULL,13020,True
49,Dearborn St & Monroe St,5,39,41.881319815,-87.6295209193,In Service,1,IN_SERVICE,34,Dearborn St & Monroe St,,Chicago,60603,80 S Dearborn St,,False,2019-02-01 18:47:25,K3_FULL,13049,True
240,Sheridan Rd & Irving Park Rd,22,27,41.954245,-87.654406,In Service,1,IN_SERVICE,5,Sheridan Rd & Irving Park Rd,,Chicago,60613,,,False,2019-02-01 18:47:54,K3_FULL,13063,True
id,stationName,availableDocks,totalDocks,latitude,longitude,statusValue,statusKey,status,availableBikes,stAddress1,stAddress2,city,postalCode,location,altitude,testStation,lastCommunicationTime,kioskType,landMark,is_renting
37,Dearborn St & Adams St,16,19,41.8793563587,-87.6297910363,In Service,1,IN_SERVICE,3,Dearborn St & Adams St,,Chicago,60603,59 W. Adams St ,,False,2019-02-01 18:50:12,K3_FULL,13020,True
id,stationName,availableDocks,totalDocks,latitude,longitude,statusValue,statusKey,status,availableBikes,stAddress1,stAddress2,city,postalCode,location,altitude,testStation,lastCommunicationTime,kioskType,landMark,is_renting
37,Dearborn St & Adams St,15,19,41.8793563587,-87.6297910363,In Service,1,IN_SERVICE,4,Dearborn St & Adams St,,Chicago,60603,59 W. Adams St ,,False,2019-02-01 18:50:12,K3_FULL,13020,True
298,Lincoln Ave & Belle Plaine Ave,7,15,41.955927,-87.679259,In Service,1,IN_SERVICE,8,Lincoln Ave & Belle Plaine Ave,,Chicago,60618,,,False,2019-02-01 18:50:11,K3_FULL,13252,True
350,Ashland Ave & Chicago Ave,0,15,41.895966,-87.667747,In Service,1,IN_SERVICE,15,Ashland Ave & Chicago Ave,,Chicago,60622,,,False,2019-02-01 18:46:52,K3_FULL,13247,True
489,Drake Ave & Addison St,15,15,41.947326,-87.717582,In Service,1,IN_SERVICE,0,Drake Ave & Addison St,,Chicago,60618,Central Park Ave & Addison St,,False,2019-02-01 18:49:51,K3_FULL,15630,True
id,stationName,availableDocks,totalDocks,latitude,longitude,statusValue,statusKey,status,availableBikes,stAddress1,stAddress2,city,postalCode,location,altitude,testStation,lastCommunicationTime,kioskType,landMark,is_renting
37,Dearborn St & Adams St,14,19,41.8793563587,-87.6297910363,In Service,1,IN_SERVICE,5,Dearborn St & Adams St,,Chicago,60603,59 W. Adams St ,,False,2019-02-01 18:50:12,K3_FULL,13020,True
107,Desplaines St & Jackson Blvd,17,27,41.878287,-87.643909,In Service,1,IN_SERVICE,10,Desplaines St & Jackson Blvd,,Chicago,60661,,,False,2019-02-01 18:47:09,K3_FULL,15539,True
510,Spaulding Ave & Division St,7,11,41.90270659438,-87.709219571,In Service,1,IN_SERVICE,4,Spaulding Ave & Division St,,Chicago,60651,,,False,2019-02-01 18:48:18,K3_FULL,15654,True
id,stationName,availableDocks,totalDocks,latitude,longitude,statusValue,statusKey,status,availableBikes,stAddress1,stAddress2,city,postalCode,location,altitude,testStation,lastCommunicationTime,kioskType,landMark,is_renting
239,Western Ave & Leland Ave,5,19,41.966555,-87.688487,In Service,1,IN_SERVICE,14,Western Ave & Leland Ave,,Chicago,60625,,,False,2019-02-01 18:47:41,K3_FULL,13112,True
id,stationName,availableDocks,totalDocks,latitude,longitude,statusValue,statusKey,status,availableBikes,stAddress1,stAddress2,city,postalCode,location,altitude,testStation,lastCommunicationTime,kioskType,landMark,is_renting
37,Dearborn St & Adams St,13,19,41.8793563587,-87.6297910363,In Service,1,IN_SERVICE,6,Dearborn St & Adams St,,Chicago,60603,59 W. Adams St ,,False,2019-02-01 18:50:12,K3_FULL,13020,True
59,Wabash Ave & Roosevelt Rd,9,23,41.867227,-87.625961,In Service,1,IN_SERVICE,14,Wabash Ave & Roosevelt Rd,,Chicago,60605,1210 S Wabash Ave,,False,2019-02-01 18:48:46,K3_FULL,13031,True
133,Kingsbury St & Kinzie St,16,31,41.88917683258,-87.6385057718,In Service,1,IN_SERVICE,14,Kingsbury St & Kinzie St,,Chicago,60654,,,False,2019-02-01 18:51:24,K3_FULL,15532,True
144,Larrabee St & Webster Ave,11,19,41.921822,-87.64414,In Service,1,IN_SERVICE,8,Larrabee St & Webster Ave,,Chicago ,60614,,,False,2019-02-01 18:51:07,K3_FULL,13193,True
276,California Ave & North Ave,3,11,41.91044,-87.6972,In Service,1,IN_SERVICE,8,California Ave & North Ave,,Chicago,60647,,,False,2019-02-01 18:50:39,K3_FULL,13258,True
340,Clark St & Wrightwood Ave,11,15,41.929546,-87.643118,In Service,1,IN_SERVICE,4,Clark St & Wrightwood Ave,,Chicago,60614,,,False,2019-02-01 18:49:08,K3_FULL,13209,True
id,stationName,availableDocks,totalDocks,latitude,longitude,statusValue,statusKey,status,availableBikes,stAddress1,stAddress2,city,postalCode,location,altitude,testStation,lastCommunicationTime,kioskType,landMark,is_renting
37,Dearborn St & Adams St,12,19,41.8793563587,-87.6297910363,In Service,1,IN_SERVICE,7,Dearborn St & Adams St,,Chicago,60603,59 W. Adams St ,,False,2019-02-01 18:50:12,K3_FULL,13020,True
498,California Ave & Fletcher St,15,19,41.93842879148,-87.698007756,In Service,1,IN_SERVICE,4,California Ave & Fletcher St,,Chicago,60618,,,False,2019-02-01 18:50:56,K3_FULL,15642,True
632,Clark St & Newport St,12,15,41.94454,-87.654678,In Service,1,IN_SERVICE,3,Clark St & Newport St,,Chicago,60657,,,False,2019-02-01 18:52:50,K3_FULL,18001,True
id,stationName,availableDocks,totalDocks,latitude,longitude,statusValue,statusKey,status,availableBikes,stAddress1,stAddress2,city,postalCode,location,altitude,testStation,lastCommunicationTime,kioskType,landMark,is_renting
37,Dearborn St & Adams St,11,19,41.8793563587,-87.6297910363,In Service,1,IN_SERVICE,8,Dearborn St & Adams St,,Chicago,60603,59 W. Adams St ,,False,2019-02-01 18:50:12,K3_FULL,13020,True
id,stationName,availableDocks,totalDocks,latitude,longitude,statusValue,statusKey,status,availableBikes,stAddress1,stAddress2,city,postalCode,location,altitude,testStation,lastCommunicationTime,kioskType,landMark,is_renting
307,Southport Ave & Clybourn Ave,9,15,41.920771,-87.663712,In Service,1,IN_SERVICE,6,Southport Ave & Clybourn Ave,,Chicago,60614,,,False,2019-02-01 18:51:05,K3_FULL,13186,True
638,Clinton St & Jackson Blvd (*),2,32,41.878419,-87.640977,In Service,1,IN_SERVICE,30,Clinton St & Jackson Blvd (*),,Chicago,60661,,,False,2019-02-01 18:50:01,K3_FULL,18012,True
id,stationName,availableDocks,totalDocks,latitude,longitude,statusValue,statusKey,status,availableBikes,stAddress1,stAddress2,city,postalCode,location,altitude,testStation,lastCommunicationTime,kioskType,landMark,is_renting
37,Dearborn St & Adams St,10,19,41.8793563587,-87.6297910363,In Service,1,IN_SERVICE,9,Dearborn St & Adams St,,Chicago,60603,59 W. Adams St ,,False,2019-02-01 18:50:12,K3_FULL,13020,True
46,Wells St & Walton St,7,19,41.89993001,-87.63443007,In Service,1,IN_SERVICE,12,Wells St & Walton St,,Chicago,60610,932 N Wells St,,False,2019-02-01 18:52:42,K3_FULL,13046,True
240,Sheridan Rd & Irving Park Rd,21,27,41.954245,-87.654406,In Service,1,IN_SERVICE,6,Sheridan Rd & Irving Park Rd,,Chicago,60613,,,False,2019-02-01 18:52:25,K3_FULL,13063,True
id,stationName,availableDocks,totalDocks,latitude,longitude,statusValue,statusKey,status,availableBikes,stAddress1,stAddress2,city,postalCode,location,altitude,testStation,lastCommunicationTime,kioskType,landMark,is_renting
38,Clark St & Lake St,25,27,41.88602082773,-87.6308760584,In Service,1,IN_SERVICE,1,Clark St & Lake St,,Chicago,60601,,,False,2019-02-01 18:51:05,K3_FULL,15547,True
54,Ogden Ave & Chicago Ave,14,19,41.896362458,-87.6540612729,In Service,1,IN_SERVICE,4,Ogden Ave & Chicago Ave,,Chicago,60642,1040 W. Chicago Ave.,,False,2019-02-01 18:54:10,K3_FULL,13044,True
74,Kingsbury St & Erie St,19,23,41.893626,-87.641527,In Service,1,IN_SERVICE,4,Kingsbury St & Erie St,,Chicago,60654,511 W Erie St,,False,2019-02-01 18:50:44,K3_FULL,13265,True
291,Wells St & Evergreen Ave,15,19,41.906724,-87.63483,In Service,1,IN_SERVICE,4,Wells St & Evergreen Ave,,Chicago,60610,,,False,2019-02-01 18:51:48,K3_FULL,13302,True
id,stationName,availableDocks,totalDocks,latitude,longitude,statusValue,statusKey,status,availableBikes,stAddress1,stAddress2,city,postalCode,location,altitude,testStation,lastCommunicationTime,kioskType,landMark,is_renting
61,Wood St & Milwaukee Ave,17,19,41.907655,-87.672552,In Service,1,IN_SERVICE,2,Wood St & Milwaukee Ave,,Chicago,60622,1416 N Wood St,,False,2019-02-01 18:52:29,K3_FULL,13221,True
346,Ada St & Washington Blvd,11,15,41.88283,-87.661206,In Service,1,IN_SERVICE,4,Ada St & Washington Blvd,,Chicago,60607,,,False,2019-02-01 18:52:34,K3_FULL,13353,True
id,stationName,availableDocks,totalDocks,latitude,longitude,statusValue,statusKey,status,availableBikes,stAddress1,stAddress2,city,postalCode,location,altitude,testStation,lastCommunicationTime,kioskType,landMark,is_renting
53,Wells St & Huron St,22,27,41.894722,-87.634362,In Service,1,IN_SERVICE,5,Wells St & Huron St,,Chicago,60654,,,False,2019-02-01 18:55:11,K3_FULL,13064,True
292,Southport Ave & Clark St,3,11,41.957081,-87.664199,In Service,1,IN_SERVICE,8,Southport Ave & Clark St,,Chicago,60613,,,False,2019-02-01 18:55:12,K3_FULL,13317,True
id,stationName,availableDocks,totalDocks,latitude,longitude,statusValue,statusKey,status,availableBikes,stAddress1,stAddress2,city,postalCode,location,altitude,testStation,lastCommunicationTime,kioskType,landMark,is_renting
7,Field Blvd & South Water St,16,19,41.88634906269,-87.6175165471,In Service,1,IN_SERVICE,3,Field Blvd & South Water St,,Chicago,60601,,,False,2019-02-01 18:51:50,K3_FULL,15534,True
62,McCormick Place,8,27,41.8513751729,-87.6188346489,In Service,1,IN_SERVICE,19,McCormick Place,,Chicago,60616,2253 S Dr Martin Luther King Jr Dr,,False,2019-02-01 18:54:47,K3_FULL,13106,True
72,Wabash Ave & 16th St,16,39,41.860384,-87.625813,In Service,1,IN_SERVICE,22,Wabash Ave & 16th St,,Chicago,60605,1590 S Wabash Ave,,False,2019-02-01 18:52:55,K3_FULL,13148,True
117,Wilton Ave & Belmont Ave,20,27,41.94018,-87.65304,In Service,1,IN_SERVICE,7,Wilton Ave & Belmont Ave,,Chicago,60657,,,False,2019-02-01 18:52:21,K3_FULL,13069,True
173,Mies van der Rohe Way & Chicago Ave,2,15,41.89691,-87.621743,In Service,1,IN_SERVICE,13,Mies van der Rohe Way & Chicago Ave,,Chicago ,60611,,,False,2019-02-01 18:56:05,K3_FULL,13338,True
623,Michigan Ave & 8th St,33,43,41.872773,-87.623981,In Service,1,IN_SERVICE,10,Michigan Ave & 8th St,,Chicago,60605,,,False,2019-02-01 18:53:53,K3_FULL,17541,True
id,stationName,availableDocks,totalDocks,latitude,longitude,statusValue,statusKey,status,availableBikes,stAddress1,stAddress2,city,postalCode,location,altitude,testStation,lastCommunicationTime,kioskType,landMark,is_renting
59,Wabash Ave & Roosevelt Rd,8,23,41.867227,-87.625961,In Service,1,IN_SERVICE,15,Wabash Ave & Roosevelt Rd,,Chicago,60605,1210 S Wabash Ave,,False,2019-02-01 18:53:56,K3_FULL,13031,True
212,Wells St & Hubbard St,26,31,41.889906,-87.634266,In Service,1,IN_SERVICE,5,Wells St & Hubbard St,,Chicago,60654,,,False,2019-02-01 18:55:13,K3_FULL,13264,True
632,Clark St & Newport St,11,15,41.94454,-87.654678,In Service,1,IN_SERVICE,4,Clark St & Newport St,,Chicago,60657,,,False,2019-02-01 18:52:50,K3_FULL,18001,True
id,stationName,availableDocks,totalDocks,latitude,longitude,statusValue,statusKey,status,availableBikes,stAddress1,stAddress2,city,postalCode,location,altitude,testStation,lastCommunicationTime,kioskType,landMark,is_renting
35,Streeter Dr & Grand Ave,32,47,41.892278,-87.612043,In Service,1,IN_SERVICE,15,Streeter Dr & Grand Ave,,Chicago,60611,Navy Pier,,False,2019-02-01 18:56:35,K3_FULL,13022,True
304,Broadway & Waveland Ave,4,15,41.949074,-87.648636,In Service,1,IN_SERVICE,11,Broadway & Waveland Ave,,Chicago,60613,,,False,2019-02-01 18:55:15,K3_FULL,13325,True
id,stationName,availableDocks,totalDocks,latitude,longitude,statusValue,statusKey,status,availableBikes,stAddress1,stAddress2,city,postalCode,location,altitude,testStation,lastCommunicationTime,kioskType,landMark,is_renting
133,Kingsbury St & Kinzie St,15,31,41.88917683258,-87.6385057718,In Service,1,IN_SERVICE,15,Kingsbury St & Kinzie St,,Chicago,60654,,,False,2019-02-01 18:55:55,K3_FULL,15532,True
id,stationName,availableDocks,totalDocks,latitude,longitude,statusValue,statusKey,status,availableBikes,stAddress1,stAddress2,city,postalCode,location,altitude,testStation,lastCommunicationTime,kioskType,landMark,is_renting
210,Ashland Ave & Division St,8,27,41.90345,-87.667747,In Service,1,IN_SERVICE,19,Ashland Ave & Division St,,Chicago,60622,,,False,2019-02-01 18:58:43,K3_FULL,13061,True
325,Clark St & Winnemac Ave (Temp),18,19,41.973255,-87.6697,In Service,1,IN_SERVICE,1,Clark St & Winnemac Ave (Temp),,Chicago,60640,,,False,2019-02-01 18:57:44,K3_FULL,13392,True
340,Clark St & Wrightwood Ave,10,15,41.929546,-87.643118,In Service,1,IN_SERVICE,5,Clark St & Wrightwood Ave,,Chicago,60614,,,False,2019-02-01 18:58:44,K3_FULL,13209,True
id,stationName,availableDocks,totalDocks,latitude,longitude,statusValue,statusKey,status,availableBikes,stAddress1,stAddress2,city,postalCode,location,altitude,testStation,lastCommunicationTime,kioskType,landMark,is_renting
212,Wells St & Hubbard St,25,31,41.889906,-87.634266,In Service,1,IN_SERVICE,6,Wells St & Hubbard St,,Chicago,60654,,,False,2019-02-01 18:59:47,K3_FULL,13264,True
id,stationName,availableDocks,totalDocks,latitude,longitude,statusValue,statusKey,status,availableBikes,stAddress1,stAddress2,city,postalCode,location,altitude,testStation,lastCommunicationTime,kioskType,landMark,is_renting
115,Sheffield Ave & Wellington Ave,21,23,41.936266,-87.652662,In Service,1,IN_SERVICE,2,Sheffield Ave & Wellington Ave,,Chicago,60657,,,False,2019-02-01 18:57:52,K3_FULL,13067,True
id,stationName,availableDocks,totalDocks,latitude,longitude,statusValue,statusKey,status,availableBikes,stAddress1,stAddress2,city,postalCode,location,altitude,testStation,lastCommunicationTime,kioskType,landMark,is_renting
241,Morgan St & Polk St,18,19,41.871737,-87.65103,In Service,1,IN_SERVICE,1,Morgan St & Polk St,,Chicago ,60607,,,False,2019-02-01 18:59:17,K3_FULL,13168,True
624,Dearborn St & Van Buren St (*),2,16,41.876268,-87.629155,In Service,1,IN_SERVICE,14,Dearborn St & Van Buren St (*),,Chicago,60605,417 S Dearborn St,,False,2019-02-01 19:00:35,K3_FULL,17013,True
id,stationName,availableDocks,totalDocks,latitude,longitude,statusValue,statusKey,status,availableBikes,stAddress1,stAddress2,city,postalCode,location,altitude,testStation,lastCommunicationTime,kioskType,landMark,is_renting
114,Sheffield Ave & Waveland Ave,5,27,41.949399,-87.654529,In Service,1,IN_SERVICE,22,Sheffield Ave & Waveland Ave,,Chicago,60657,,,False,2019-02-01 18:58:45,K3_FULL,13062,True
192,Canal St & Adams St,10,47,41.879255,-87.639904,In Service,1,IN_SERVICE,37,Canal St & Adams St,,Chicago,60661,,,False,2019-02-01 18:59:11,K3_FULL,13011,True
198,Green St & Madison St,11,27,41.881892,-87.648789,In Service,1,IN_SERVICE,15,Green St & Madison St,,Chicago,60661,,,False,2019-02-01 19:00:12,K3_FULL,13159,True
299,Halsted St & Roscoe St,8,15,41.94367,-87.64895,In Service,1,IN_SERVICE,7,Halsted St & Roscoe St,,Chicago,60657,,,False,2019-02-01 19:00:40,K3_FULL,13127,True
id,stationName,availableDocks,totalDocks,latitude,longitude,statusValue,statusKey,status,availableBikes,stAddress1,stAddress2,city,postalCode,location,altitude,testStation,lastCommunicationTime,kioskType,landMark,is_renting
48,Larrabee St & Kingsbury St,22,43,41.897764,-87.642884,In Service,1,IN_SERVICE,21,Larrabee St & Kingsbury St,,Chicago,60610,840 N Larrabee St,,False,2019-02-01 19:02:05,K3_FULL,13012,True
53,Wells St & Huron St,21,27,41.894722,-87.634362,In Service,1,IN_SERVICE,6,Wells St & Huron St,,Chicago,60654,,,False,2019-02-01 18:59:43,K3_FULL,13064,True
199,Wabash Ave & Grand Ave,19,31,41.891466,-87.626761,In Service,1,IN_SERVICE,12,Wabash Ave & Grand Ave,,Chicago,60611,,,False,2019-02-01 19:01:57,K3_FULL,13004,True
291,Wells St & Evergreen Ave,16,19,41.906724,-87.63483,In Service,1,IN_SERVICE,3,Wells St & Evergreen Ave,,Chicago,60610,,,False,2019-02-01 19:00:56,K3_FULL,13302,True
id,stationName,availableDocks,totalDocks,latitude,longitude,statusValue,statusKey,status,availableBikes,stAddress1,stAddress2,city,postalCode,location,altitude,testStation,lastCommunicationTime,kioskType,landMark,is_renting
49,Dearborn St & Monroe St,6,39,41.881319815,-87.6295209193,In Service,1,IN_SERVICE,33,Dearborn St & Monroe St,,Chicago,60603,80 S Dearborn St,,False,2019-02-01 19:00:44,K3_FULL,13049,True
344,Ravenswood Ave & Lawrence Ave,46,47,41.96909,-87.674237,In Service,1,IN_SERVICE,1,Ravenswood Ave & Lawrence Ave,,Chicago,60640,,,False,2019-02-01 19:00:24,K3_FULL,13026,True
id,stationName,availableDocks,totalDocks,latitude,longitude,statusValue,statusKey,status,availableBikes,stAddress1,stAddress2,city,postalCode,location,altitude,testStation,lastCommunicationTime,kioskType,landMark,is_renting
114,Sheffield Ave & Waveland Ave,6,27,41.949399,-87.654529,In Service,1,IN_SERVICE,21,Sheffield Ave & Waveland Ave,,Chicago,60657,,,False,2019-02-01 19:03:07,K3_FULL,13062,True
id,stationName,availableDocks,totalDocks,latitude,longitude,statusValue,statusKey,status,availableBikes,stAddress1,stAddress2,city,postalCode,location,altitude,testStation,lastCommunicationTime,kioskType,landMark,is_renting
33,State St & Van Buren St,25,27,41.877181,-87.627844,In Service,1,IN_SERVICE,2,State St & Van Buren St,,Chicago,60604,360 S State St,,False,2019-02-01 19:04:44,K3_FULL,13003,True
328,Ellis Ave & 58th St,15,19,41.788746,-87.601334,In Service,1,IN_SERVICE,0,Ellis Ave & 58th St,,Chicago,60637,,,False,2019-02-01 19:03:37,K3_FULL,13365,True
id,stationName,availableDocks,totalDocks,latitude,longitude,statusValue,statusKey,status,availableBikes,stAddress1,stAddress2,city,postalCode,location,altitude,testStation,lastCommunicationTime,kioskType,landMark,is_renting
488,Pulaski Rd & Eddy St (Temp),5,11,41.946264,-87.731023,In Service,1,IN_SERVICE,6,Pulaski Rd & Eddy St (Temp),,Chicago,60641,,,False,2019-02-01 19:05:04,K3_FULL,15629,True
id,stationName,availableDocks,totalDocks,latitude,longitude,statusValue,statusKey,status,availableBikes,stAddress1,stAddress2,city,postalCode,location,altitude,testStation,lastCommunicationTime,kioskType,landMark,is_renting
210,Ashland Ave & Division St,9,27,41.90345,-87.667747,In Service,1,IN_SERVICE,18,Ashland Ave & Division St,,Chicago,60622,,,False,2019-02-01 19:03:20,K3_FULL,13061,True
258,Logan Blvd & Elston Ave,4,27,41.929465,-87.684158,In Service,1,IN_SERVICE,22,Logan Blvd & Elston Ave,,Chicago,60647,,,False,2019-02-01 19:03:45,K3_FULL,13145,True
305,Western Ave & Division St,13,22,41.902893,-87.687275,In Service,1,IN_SERVICE,9,Western Ave & Division St,,Chicago,60622,,,False,2019-02-01 19:04:45,K3_FULL,13241,True
id,stationName,availableDocks,totalDocks,latitude,longitude,statusValue,statusKey,status,availableBikes,stAddress1,stAddress2,city,postalCode,location,altitude,testStation,lastCommunicationTime,kioskType,landMark,is_renting
33,State St & Van Buren St,24,27,41.877181,-87.627844,In Service,1,IN_SERVICE,3,State St & Van Buren St,,Chicago,60604,360 S State St,,False,2019-02-01 19:04:44,K3_FULL,13003,True
153,Southport Ave & Wellington Ave,11,19,41.935733,-87.663576,In Service,1,IN_SERVICE,8,Southport Ave & Wellington Ave,,Chicago ,60657,,,False,2019-02-01 19:04:09,K3_FULL,13228,True
id,stationName,availableDocks,totalDocks,latitude,longitude,statusValue,statusKey,status,availableBikes,stAddress1,stAddress2,city,postalCode,location,altitude,testStation,lastCommunicationTime,kioskType,landMark,is_renting
347,Ashland Ave & Grace St,11,15,41.950687,-87.6687,In Service,1,IN_SERVICE,4,Ashland Ave & Grace St,,Chicago,60613,,,False,2019-02-01 19:04:10,K3_FULL,13319,True
id,stationName,availableDocks,totalDocks,latitude,longitude,statusValue,statusKey,status,availableBikes,stAddress1,stAddress2,city,postalCode,location,altitude,testStation,lastCommunicationTime,kioskType,landMark,is_renting
195,Columbus Dr & Randolph St,29,54,41.884728,-87.619521,In Service,1,IN_SERVICE,24,Columbus Dr & Randolph St,,Chicago,60601,,,False,2019-02-01 19:06:20,K3_FULL,13263,True
id,stationName,availableDocks,totalDocks,latitude,longitude,statusValue,statusKey,status,availableBikes,stAddress1,stAddress2,city,postalCode,location,altitude,testStation,lastCommunicationTime,kioskType,landMark,is_renting
59,Wabash Ave & Roosevelt Rd,7,23,41.867227,-87.625961,In Service,1,IN_SERVICE,16,Wabash Ave & Roosevelt Rd,,Chicago,60605,1210 S Wabash Ave,,False,2019-02-01 19:04:16,K3_FULL,13031,True
227,Southport Ave & Waveland Ave,8,23,41.94815,-87.66394,In Service,1,IN_SERVICE,15,Southport Ave & Waveland Ave,,Chicago,60613,,,False,2019-02-01 19:04:56,K3_FULL,13235,True
id,stationName,availableDocks,totalDocks,latitude,longitude,statusValue,statusKey,status,availableBikes,stAddress1,stAddress2,city,postalCode,location,altitude,testStation,lastCommunicationTime,kioskType,landMark,is_renting
81,Daley Center Plaza,18,39,41.884241,-87.629634,In Service,1,IN_SERVICE,20,Daley Center Plaza,,Chicago,60601,,,False,2019-02-01 19:08:33,K3_FULL,13023,True
125,Rush St & Hubbard St,16,23,41.890173,-87.626185,In Service,1,IN_SERVICE,7,Rush St & Hubbard St,,Chicago,60611,,,False,2019-02-01 19:06:41,K3_FULL,15533,True
id,stationName,availableDocks,totalDocks,latitude,longitude,statusValue,statusKey,status,availableBikes,stAddress1,stAddress2,city,postalCode,location,altitude,testStation,lastCommunicationTime,kioskType,landMark,is_renting
338,Calumet Ave & 18th St,13,15,41.857611,-87.619407,In Service,1,IN_SERVICE,2,Calumet Ave & 18th St,,Chicago,60616,,,False,2019-02-01 19:07:13,K3_FULL,13102,True
id,stationName,availableDocks,totalDocks,latitude,longitude,statusValue,statusKey,status,availableBikes,stAddress1,stAddress2,city,postalCode,location,altitude,testStation,lastCommunicationTime,kioskType,landMark,is_renting
33,State St & Van Buren St,22,27,41.877181,-87.627844,In Service,1,IN_SERVICE,4,State St & Van Buren St,,Chicago,60604,360 S State St,,False,2019-02-01 19:09:18,K3_FULL,13003,True
110,Dearborn St & Erie St,5,27,41.893992,-87.629318,In Service,1,IN_SERVICE,22,Dearborn St & Erie St,"
",Chicago,60654,,,False,2019-02-01 19:07:13,K3_FULL,13045,True
293,Broadway & Wilson Ave,21,23,41.965221,-87.658139,In Service,1,IN_SERVICE,2,Broadway & Wilson Ave,,Chicago,60640,,,False,2019-02-01 19:06:29,K3_FULL,13074,True
346,Ada St & Washington Blvd,10,15,41.88283,-87.661206,In Service,1,IN_SERVICE,5,Ada St & Washington Blvd,,Chicago,60607,,,False,2019-02-01 19:05:54,K3_FULL,13353,True
id,stationName,availableDocks,totalDocks,latitude,longitude,statusValue,statusKey,status,availableBikes,stAddress1,stAddress2,city,postalCode,location,altitude,testStation,lastCommunicationTime,kioskType,landMark,is_renting
146,Loomis St & Jackson Blvd,11,19,41.877945,-87.662007,In Service,1,IN_SERVICE,8,Loomis St & Jackson Blvd,,Chicago ,60607,,,False,2019-02-01 19:10:21,K3_FULL,13206,True
423,University Ave & 57th St,10,31,41.791478,-87.599861,In Service,1,IN_SERVICE,21,University Ave & 57th St,,Chicago,60637,Off Street,,False,2019-02-01 19:09:41,K3_FULL,15478,True
id,stationName,availableDocks,totalDocks,latitude,longitude,statusValue,statusKey,status,availableBikes,stAddress1,stAddress2,city,postalCode,location,altitude,testStation,lastCommunicationTime,kioskType,landMark,is_renting
60,Dayton St & North Ave,18,19,41.9105780349,-87.6494219288,In Service,1,IN_SERVICE,1,Dayton St & North Ave,,Chicago,60642,1575 N Dayton St,,False,2019-02-01 19:06:47,K3_FULL,13058,True
233,Sangamon St & Washington Blvd (*),14,16,41.883165,-87.6511,In Service,1,IN_SERVICE,2,Sangamon St & Washington Blvd (*),,Chicago,60607,,,False,2019-02-01 19:07:16,K3_FULL,13409,True
295,Broadway & Argyle St,17,19,41.973815,-87.65966,In Service,1,IN_SERVICE,2,Broadway & Argyle St,,Chicago,60640,,,False,2019-02-01 19:10:52,K3_FULL,13108,True
id,stationName,availableDocks,totalDocks,latitude,longitude,statusValue,statusKey,status,availableBikes,stAddress1,stAddress2,city,postalCode,location,altitude,testStation,lastCommunicationTime,kioskType,landMark,is_renting
153,Southport Ave & Wellington Ave,13,19,41.935733,-87.663576,In Service,1,IN_SERVICE,6,Southport Ave & Wellington Ave,,Chicago ,60657,,,False,2019-02-01 19:08:42,K3_FULL,13228,True
347,Ashland Ave & Grace St,10,15,41.950687,-87.6687,In Service,1,IN_SERVICE,5,Ashland Ave & Grace St,,Chicago,60613,,,False,2019-02-01 19:08:46,K3_FULL,13319,True
id,stationName,availableDocks,totalDocks,latitude,longitude,statusValue,statusKey,status,availableBikes,stAddress1,stAddress2,city,postalCode,location,altitude,testStation,lastCommunicationTime,kioskType,landMark,is_renting
345,Lake Park Ave & 56th St,16,19,41.793242,-87.587782,In Service,1,IN_SERVICE,2,Lake Park Ave & 56th St,,Chicago,60637,,,False,2019-02-01 19:08:46,K3_FULL,13119,True
id,stationName,availableDocks,totalDocks,latitude,longitude,statusValue,statusKey,status,availableBikes,stAddress1,stAddress2,city,postalCode,location,altitude,testStation,lastCommunicationTime,kioskType,landMark,is_renting
256,Broadway & Sheridan Rd,4,15,41.952833,-87.649993,In Service,1,IN_SERVICE,11,Broadway & Sheridan Rd,,Chicago,60613,,,False,2019-02-01 19:13:12,K3_FULL,13323,True
id,stationName,availableDocks,totalDocks,latitude,longitude,statusValue,statusKey,status,availableBikes,stAddress1,stAddress2,city,postalCode,location,altitude,testStation,lastCommunicationTime,kioskType,landMark,is_renting
48,Larrabee St & Kingsbury St,23,43,41.897764,-87.642884,In Service,1,IN_SERVICE,20,Larrabee St & Kingsbury St,,Chicago,60610,840 N Larrabee St,,False,2019-02-01 19:10:56,K3_FULL,13012,True
id,stationName,availableDocks,totalDocks,latitude,longitude,statusValue,statusKey,status,availableBikes,stAddress1,stAddress2,city,postalCode,location,altitude,testStation,lastCommunicationTime,kioskType,landMark,is_renting
48,Larrabee St & Kingsbury St,22,43,41.897764,-87.642884,In Service,1,IN_SERVICE,21,Larrabee St & Kingsbury St,,Chicago,60610,840 N Larrabee St,,False,2019-02-01 19:10:56,K3_FULL,13012,True
